Time (UTC),ROS Epoch,Latitude,Longitude,Depth,Roll,Pitch,Yaw
2021-03-18-23-13-16,1615828992551343160,34.418281555176484687,-119.85009002685502821,-0.080300144018106742183,0.0076332618288762685288,0.079457960804003260891,1.1963138852502810394,0,0,0
2021-03-18-23-13-16,1615828992551752015,34.418281555176484687,-119.85009002685502821,-0.080300144018106742183,0.0076332618288762685288,0.079457960804003260891,1.1963138852502810394,0,0,0
2021-03-18-23-13-16,1615828992991275348,34.418281555176463371,-119.85009002685499979,-0.080300368697928614647,0.016881971141451807689,0.083019997848849155786,1.2306903146662655502,0,0,0
2021-03-18-23-13-16,1615828993991264149,34.418281555176442055,-119.85009002685492874,-0.080300517744221339145,0.023535494135278282185,0.085374979798098882267,1.2551874113584002846,0,0,0
2021-03-18-23-13-16,1615828994991252118,34.418281555176442055,-119.85009002685494295,-0.080300504989140000789,0.02656663659591471105,0.086380774939942714385,1.2662767456637227248,0,0,0
2021-03-18-23-13-23,1615828995991342013,34.418277740478778526,-119.85008239745994274,-0.071067565750020808557,-0.0094810435793064584686,0.069292797329251934468,1.3722935254589567755,0,0,0
2021-03-18-23-13-24,1615828996991413211,34.418277740479076954,-119.85008239745926062,-0.060284021567752053838,-0.022563901850021123724,0.065642606622106122738,1.3892533933484501052,0,0,0
2021-03-18-23-13-24,1615828997991278835,34.418277740479361171,-119.85008239745877745,-0.060441482933914804365,-0.028200921335791707262,0.064480550838728112328,1.4424805489145915427,0,0,0
2021-03-18-23-13-24,1615828998991305710,34.418277740479375382,-119.85008239745869218,-0.060441346841476999152,-0.034194145412618115465,0.063582121699805177473,1.4985252850820665049,0,0,0
2021-03-18-23-13-24,1615828999991268366,34.418277740479382487,-119.85008239745864955,-0.060441302483531939016,-0.040237322137661762911,0.063019456503904378031,1.5546528043766649763,0,0,0
2021-03-18-23-13-24,1615829000991274980,34.418277740479396698,-119.85008239745862113,-0.060441285428605065477,-0.046285140717271494593,0.062795990908909679606,1.6106167243802564926,0,0,0
2021-03-18-23-13-24,1615829001991253886,34.418277740479396698,-119.85008239745862113,-0.060441279865238339841,-0.052345306895033617833,0.062911033048750869545,1.666662477433546341,0,0,0
2021-03-18-23-13-30,1615829002991918833,34.418273925781370792,-119.85007476806592308,-0.058886900116717995346,-0.022156571646667368863,0.070256678966281765897,1.4331586886821339188,0,0,0
2021-03-18-23-13-31,1615829003991262010,34.418273925781285527,-119.85007476806597992,-0.053408429887805461411,-0.04619676277991444785,0.073324840341011804368,1.4249538364615634833,0,0,0
2021-03-18-23-13-31,1615829004991224979,34.418273925781313949,-119.85007476806592308,-0.053408318145077904315,-0.055871028067142065876,0.073648444689336109437,1.4282748402151268508,0,0,0
2021-03-18-23-13-31,1615829005991276228,34.418273925781313949,-119.85007476806592308,-0.053408318145077904315,-0.055871028067142065876,0.073648444689336109437,1.4282748402151268508,0,0,0
2021-03-18-23-13-31,1615829006991254197,34.418273925781313949,-119.85007476806592308,-0.053408318145077904315,-0.055871028067142065876,0.073648444689336109437,1.4282748402151268508,0,0,0
2021-03-18-23-13-31,1615829007991257269,34.418273925777995714,-119.85007476806269722,-0.052543708949109070583,-0.11565727298808428647,0.076155610912915769339,1.4487462529062236083,0,0,0
2021-03-18-23-13-36,1615829008991234248,34.418273925747762121,-119.85007476802005044,-0.055293711511869909903,0.007194089597258819524,0.071871941229793206984,1.3500604716940369787,0,0,0
2021-03-18-23-13-37,1615829009992354247,34.418273925782223444,-119.85007476806811155,-0.047452942117043976633,-0.0059336999808703994042,0.070786467225975757689,1.308833801989523149,0,0,0
2021-03-18-23-13-38,1615829010991257685,34.418273925780226818,-119.8500747680620151,-0.038535630772000582789,-0.017751576481180714878,0.065739119848682137093,1.2826321752839573431,0,0,0
2021-03-18-23-13-39,1615829011991237372,34.418273925780681566,-119.85007476806414672,-0.034405648109910570709,-0.0049352097981735527227,0.071377273690034756526,1.2698239289311405997,0,0,0
2021-03-18-23-13-40,1615829012991204819,34.418277740478373516,-119.85007476806616467,-0.028057304216971314104,-0.03113294718197156738,0.061992871379338350402,1.2319710106596812871,0,0,0
2021-03-18-23-13-41,1615829013991232736,34.418277740478401938,-119.85007476806630677,-0.023259479377794049088,-0.031723262441229541087,0.062892312122081406311,1.2127537621061947881,0,0,0
2021-03-18-23-13-42,1615829014991379766,34.418273925781093681,-119.85007476806600835,-0.018183284397143169991,0.0092248665438323922822,0.069270571636102160062,1.1955558937304346934,0,0,0
2021-03-18-23-13-43,1615829015991453412,34.418273925781235789,-119.85007476806701732,-0.015472255399295630277,-0.0059342104686413059758,0.074297584158757923323,1.1772305432525729252,0,0,0
2021-03-18-23-13-44,1615829016991364089,34.418273925781072364,-119.85007476806613624,-0.012475373526977535932,-0.020089090790924312574,0.075707080660921147186,1.1658967058352660562,0,0,0
2021-03-18-23-13-45,1615829017991251744,34.418273925781349476,-119.85007476806671889,-0.013868729399191865106,0.0009404563125092282351,0.071775493419312927368,1.1397706647023317927,0,0,0
2021-03-18-23-13-46,1615829018991294661,34.418273925781299738,-119.85007476806649152,-0.00473380486665163705,-0.027840687948157107762,0.066520995689604303647,1.1232737195964712651,0,0,0
2021-03-18-23-13-47,1615829019991538775,34.418273925781065259,-119.85007476806639204,-0.008244184984608899508,-0.036799214332018478912,0.065109034672303320312,1.0998424323041420259,0,0,0
2021-03-18-23-13-48,1615829020991233306,34.418273925781242895,-119.85007476806640625,-0.0034235121121276934977,-0.018624266243341191379,0.073415648540363920294,1.0958825416954454113,0,0,0
2021-03-18-23-13-49,1615829021991285389,34.41827392578125,-119.85007476806664783,-0.0048001859797404452385,-0.0054185240799609129744,0.072482152686538389719,1.0713432374911984191,0,0,0
2021-03-18-23-13-50,1615829022991297315,34.418273925781434741,-119.85007476806626414,-0.0042094504714111635746,-0.024065460002817715135,0.060811995203562105305,1.0439243782841884922,0,0,0
2021-03-18-23-13-51,1615829023991242628,34.418273925781114997,-119.85007476806623572,-0.00016290563758421469924,-0.0081647882161515385885,0.072840281653570940201,1.0330804170437648537,0,0,0
2021-03-18-23-13-52,1615829024991298825,34.418273925781321054,-119.85007476806617888,0.002678137488493020045,-0.012494266514169044546,0.071681594865225739532,1.0181561493323207923,0,0,0
2021-03-18-23-13-53,1615829025991254137,34.418270111083764107,-119.8500747680662073,0.0040687778471894279694,-0.023383255953142223493,0.060931188054218772543,0.97862961147693328101,0,0,0
2021-03-18-23-13-54,1615829026991223043,34.4182701110850644,-119.85007476806687521,-0.0016988954315836468211,-0.019434887040949574977,0.064910960782440171868,0.96281535032765430682,0,0,0
2021-03-18-23-13-55,1615829027991249866,34.418270111084012797,-119.85007476806630677,0.004742930167671501919,-0.029300153205744181029,0.063535251104348211548,0.94239133816960662937,0,0,0
2021-03-18-23-13-56,1615829028991353407,34.418270111084154905,-119.85007476806661941,0.0019090203232233543193,-0.036274416250374086346,0.063894996003191886769,0.92239982543393850278,0,0,0
2021-03-18-23-13-57,1615829029992119604,34.418270111083707263,-119.85007476806485727,0.00023822215517664248807,-0.021952026514076086738,0.060620158754071049034,0.89757362826851638804,0,0,0
2021-03-18-23-13-58,1615829030991260437,34.418270111084261487,-119.85007476806717364,0.0026334234388284485928,-0.0046312897676835515157,0.065828700672130660565,0.87266811522079912322,0,0,0
2021-03-18-23-13-59,1615829031991746583,34.41827011108397727,-119.85007476806626414,0.0026286675039512239632,-0.024492003307357478048,0.059805413891959285921,0.85710529623256836995,0,0,0
2021-03-18-23-14-00,1615829032992366478,34.418270111083835161,-119.85007476806688942,0.005177454897320490218,-0.0071520375333494123557,0.075000803444974811773,0.83704817492403216228,0,0,0
2021-03-18-23-14-01,1615829033991251009,34.418270111084076746,-119.85007476806617888,0.0043821069906169298272,-0.0017855148303506794723,0.074500559608513067245,0.80486228619631150494,0,0,0
2021-03-18-23-14-02,1615829034991220071,34.418270111084005691,-119.85007476806674731,0.00097233380985623603029,-0.0061608773249260647201,0.07512519708970975818,0.78486658614467608164,0,0,0
2021-03-18-23-14-03,1615829035991497779,34.418270111083984375,-119.85007476806640625,0.0019534490796748109169,-0.026187695104898069814,0.059381408148492749455,0.74748159044834305842,0,0,0
2021-03-18-23-14-04,1615829036991261893,34.418270111083892004,-119.85007476806651994,0.0022811177487503026852,-0.027063066939303045272,0.057177869838405441516,0.71807390691467942734,0,0,0
2021-03-18-23-14-05,1615829037991282466,34.418270111084062535,-119.85007476806592308,0.0019316334062928930838,-0.015619507016632025106,0.057830038251601635635,0.68770359235114331131,0,0,0
2021-03-18-23-14-06,1615829038991294809,34.418270111084005691,-119.85007476806639204,0.003108470749239443387,-0.0062290848776272722542,0.074759146131796239132,0.67145262122953885964,0,0,0
2021-03-18-23-14-07,1615829039991241007,34.418266296386654801,-119.85007476806643467,0.0026672792143097186733,-0.0094224360825873668124,0.07523139784126073315,0.64134070836746326361,0,0,0
2021-03-18-23-14-08,1615829040991281944,34.418266296386725855,-119.85007476806639204,0.0011385038054607715587,-0.0049608160738569898052,0.075920559811863866373,0.6174556602047858167,0,0,0
2021-03-18-23-14-09,1615829041991254548,34.418266296386477165,-119.85008239746139225,0.0018792635836168921672,-0.017793072463709643655,0.059338714476345678916,0.60136305872746798062,0,0,0
2021-03-18-23-14-10,1615829042991316058,34.418266296386725855,-119.85007476806639204,-0.002685471345695573768,0.00020340581556127696784,0.07771438381283636565,0.62458540176739929528,0,0,0
2021-03-18-23-14-11,1615829043991225432,34.418266296386597958,-119.85007476806687521,0.0010902579422130190528,-0.021721947811617282192,0.055706905332190630176,0.62254459057739008898,0,0,0
2021-03-18-23-14-12,1615829044991251213,34.418266296386775593,-119.85007476806603677,-0.0031820021773694764922,-0.0056936827472193448155,0.074202022560574301679,0.63206104152194741985,0,0,0
2021-03-18-23-14-13,1615829045991239807,34.418266296386740066,-119.85007476806649152,-0.0059160607885861450639,-0.025485304512453611087,0.05675884280411890026,0.62399072117762033329,0,0,0
2021-03-18-23-14-14,1615829046991268973,34.418266296386761383,-119.85007476806636362,-0.0033010109314368192221,-0.0040212600893865689186,0.07659927693510487634,0.62475335744089621759,0,0,0
2021-03-18-23-14-15,1615829047991244650,34.418266296386754277,-119.85007476806640625,-0.0059527579240059840665,-0.0084595937307500677221,0.055697193520719723292,0.61254156414514981943,0,0,0
2021-03-18-23-14-16,1615829048991233139,34.418266296386647696,-119.85007476806666205,-0.0098958041610865410398,-0.0090265306646517464578,0.077207008492403347844,0.61467575743847246983,0,0,0
2021-03-18-23-14-17,1615829049991232149,34.418266296386811121,-119.85007476806643467,-0.0076935211329584836729,-0.015419204257115421558,0.077298042261712010537,0.60974431537524520497,0,0,0
2021-03-18-23-14-18,1615829050991234596,34.418266296386704539,-119.85007476806643467,-0.010290069402284376596,-0.0011274409315010190669,0.072939110348013105889,0.60051662138473516084,0,0,0
2021-03-18-23-14-19,1615829051991294336,34.418266296386661907,-119.85007476806639204,-0.0088208721914330434632,0.0023451744170992607288,0.076210480514723746848,0.59372854399254693103,0,0,0
2021-03-18-23-14-20,1615829052991907148,34.418266296386569536,-119.85007476806623572,-0.0093791266801427925631,-0.022266403894598482682,0.058049148420619554878,0.58012188497931005404,0,0,0
2021-03-18-23-14-21,1615829053991255793,34.418266296386619274,-119.85007476806626414,-0.010086120819360741216,-0.029059634502367450576,0.057850169789451261204,0.57500074036425030677,0,0,0
2021-03-18-23-14-22,1615829054991251626,34.41826629638671875,-119.85007476806659099,-0.012844010259972758053,-0.011684737406376741881,0.055729324024795405534,0.56666821426280478136,0,0,0
2021-03-18-23-14-23,1615829055991345949,34.418266296386484271,-119.85007476806704574,-0.0099474910051608432526,-0.0077832399053764222269,0.077336152727200221935,0.56943962918687229813,0,0,0
2021-03-18-23-14-24,1615829056991233396,34.418266296386569536,-119.85007476806646309,-0.015978247128022659423,-0.01759586925053274048,0.057327170218062009632,0.55234908694310325128,0,0,0
2021-03-18-23-14-25,1615829057991236365,34.418266296386732961,-119.85007476806640625,-0.018482795847245849646,-0.0012169145369420827398,0.07737488706436439212,0.55864504207530829571,0,0,0
2021-03-18-23-14-26,1615829058991247354,34.418266296386534009,-119.85007476806640625,-0.016897352893755449021,-0.01948161423051087901,0.058745843592408697464,0.54291046422188726783,0,0,0
2021-03-18-23-14-27,1615829059991298135,34.418266296386725855,-119.8500747680663352,-0.021679545859243778277,-0.0081681602398782152119,0.076094052308322057687,0.54691859575400203486,0,0,0
2021-03-18-23-14-28,1615829060991247405,34.418266296386853753,-119.85007476806643467,-0.025326591991014793526,-0.013372233980804981365,0.056152836413528105231,0.53168142671377516262,0,0,0
2021-03-18-23-14-29,1615829061991273863,34.418266296386732961,-119.85007476806651994,-0.022167537125989067448,-0.015106129111100907378,0.058571174906617437528,0.52258506922454339705,0,0,0
2021-03-18-23-14-30,1615829062991673811,34.418266296386711645,-119.85006713867181816,-0.025125450680397384828,-0.010347127008726612549,0.079220056253841084071,0.52904772937854382953,0,0,0
2021-03-18-23-14-31,1615829063991391466,34.418266296386903491,-119.85006713867137762,-0.026548138261131445231,-0.011600193198900710101,0.078689422805967801366,0.52734781193238344787,0,0,0
2021-03-18-23-14-32,1615829064991253237,34.418266296386740066,-119.85006713867196027,-0.024304691517652084187,-0.0003910434703448114821,0.078915144636940784406,0.52124755050775517518,0,0,0
2021-03-18-23-14-33,1615829065991277768,34.418266296386654801,-119.85006713867196027,-0.026345055419083007048,-0.018249273337744818108,0.057496655093740800524,0.50707476152128139191,0,0,0
2021-03-18-23-14-34,1615829066991267351,34.418266296386931913,-119.85006713867217343,-0.029954016855263512764,-0.016779782900852757005,0.057946226767915748335,0.49625828893057988278,0,0,0
2021-03-18-23-14-35,1615829067991268861,34.418266296386626379,-119.85006713867207395,-0.02815517701076496182,-0.020670012931196683759,0.05805207744761631955,0.49080173946961003217,0,0,0
2021-03-18-23-14-36,1615829068991334277,34.418266296386704539,-119.85006713867170447,-0.031883173148049996637,-0.010238553205153695311,0.077798424697224310975,0.48232718490039905301,0,0,0
2021-03-18-23-14-37,1615829069991246933,34.418266296386676117,-119.85006713867176131,-0.031453283074853101431,-0.014960911055622182556,0.07852643810994348883,0.46653345662130146776,0,0,0
2021-03-18-23-14-38,1615829070991229693,34.418266296386804015,-119.85006713867201711,-0.035131733015950683541,-0.0060283960318824872035,0.072601934077200183659,0.45936020714943387455,0,0,0
2021-03-18-23-14-39,1615829071991231828,34.418266296386711645,-119.85006713867186079,-0.032602109434601546367,-0.0066762961880133340348,0.055359371057785794479,0.43528139742202048845,0,0,0
2021-03-18-23-14-40,1615829072991227661,34.418266296386740066,-119.8500671386724008,-0.036077502494300764391,-0.012210124444066274355,0.05484907956686228131,0.42327053479515536205,0,0,0
2021-03-18-23-14-41,1615829073991258598,34.418266296386768488,-119.85006713867173289,-0.038547975827686473127,-0.019279743790341901527,0.054309644039449496422,0.41309258798476261587,0,0,0
2021-03-18-23-14-42,1615829074991228754,34.41826629638671875,-119.85006713867191763,-0.037790535762132752839,-0.00099127304343894990027,0.076391932730211178915,0.40979074508067858673,0,0,0
2021-03-18-23-14-43,1615829075991348858,34.418266296386526903,-119.85006713867194605,-0.044347562065977987056,-0.0074775409935483420909,0.074746961986071280837,0.39989831426175476148,0,0,0
2021-03-18-23-14-44,1615829076991386097,34.41826629638654822,-119.85006713867191763,-0.041166445370132129233,-0.015794131428664735101,0.078431527805987458213,0.38198046526081758101,0,0,0
2021-03-18-23-14-45,1615829077991217659,34.418266296386576641,-119.85006713867120709,-0.038956992940233602096,-0.012520797559007776009,0.055266305924619639478,0.36115133326968335004,0,0,0
2021-03-18-23-14-46,1615829078991318388,34.418266296386896386,-119.85006713867242922,-0.040522158588509618604,-0.0054639629967773457181,0.054444083065182460879,0.34665490174962326764,0,0,0
2021-03-18-23-14-47,1615829079991263075,34.418266296386654801,-119.85006713867186079,-0.044415058570108467695,-0.021866094031361343192,0.056544954882628881143,0.33314871855600886041,0,0,0
2021-03-18-23-14-48,1615829080991233075,34.41826629638688928,-119.85006713867112182,-0.04786903877693504672,-0.015015716826752232779,0.078623875618207494931,0.33223333706203644899,0,0,0
2021-03-18-23-14-49,1615829081991284897,34.418266296386725855,-119.85006713867201711,-0.048244220452615560468,-0.0088902090914489886181,0.056285516803111702855,0.30625932730290678085,0,0,0
2021-03-18-23-14-50,1615829082991238022,34.418266296386988756,-119.85006713867237238,-0.047072233800233051482,-0.0029645490073223219191,0.052712301279937236187,0.29760219121674402754,0,0,0
2021-03-18-23-14-51,1615829083991233490,34.418266296386569536,-119.85006713867217343,-0.047968042724536336108,-0.023251247151492748094,0.055054037086463274153,0.28448079503011475255,0,0,0
2021-03-18-23-14-52,1615829084991222813,34.418266296386882175,-119.85006713867137762,-0.053780489657202827647,-0.0083275314547016643374,0.077058066226534036036,0.28359958651222699766,0,0,0
2021-03-18-23-14-53,1615829085991198489,34.418266296386754277,-119.85006713867188921,-0.050317125873310421247,0.00055681298649142615259,0.078205901423697946062,0.27269401461267023246,0,0,0
2021-03-18-23-14-54,1615829086991222603,34.418266296386775593,-119.85006713867183237,-0.050174872952914180424,-0.012245275208541959652,0.077974088087694556903,0.26599045430315115812,0,0,0
2021-03-18-23-14-55,1615829087991219114,34.418266296386811121,-119.85006713867191763,-0.05398716628587369587,-0.024043917748650063537,0.056567886214605525574,0.25033219526364058893,0,0,0
2021-03-18-23-14-56,1615829088991276249,34.418266296386789804,-119.85006713867143446,-0.053912329153253557568,-0.0063507717851459819305,0.05422505887734233726,0.24471896000763115886,0,0,0
2021-03-18-23-14-57,1615829089991239217,34.418266296386740066,-119.85006713867186079,-0.055476291019913588631,-0.0098434846311709917749,0.053868627379915011433,0.23961438373426813264,0,0,0
2021-03-18-23-14-58,1615829090991269321,34.418266296386754277,-119.8500671386714771,-0.057999673592369106745,-0.014267134843237562133,0.079337998918077953792,0.24289810793523444743,0,0,0
2021-03-18-23-14-59,1615829091991561560,34.418266296386484271,-119.85006713867181816,-0.05358413913436647219,-0.013076274303214927702,0.079402270359002866118,0.23682741348243513402,0,0,0
2021-03-18-23-15-00,1615829092991362810,34.418266296386732961,-119.85006713867204553,-0.053802758057927169144,-0.00068031946243349360019,0.078876209079919309963,0.23351850960450082351,0,0,0
2021-03-18-23-15-01,1615829093991152861,34.41826629638671875,-119.85006713867183237,-0.056663237340379368767,-0.011484741393311700616,0.055754218315226346248,0.22512671565356501269,0,0,0
2021-03-18-23-15-02,1615829094991379111,34.418266296386711645,-119.85006713867181816,-0.060388957627197162314,-0.013304387756372283366,0.054488702721250635574,0.22333532314654877537,0,0,0
2021-03-18-23-15-03,1615829095991246871,34.41826629638671875,-119.85006713867191763,-0.060938243376395473394,-0.016702715575920221158,0.056377856395650037535,0.2229142188627336596,0,0,0
2021-03-18-23-15-04,1615829096991246923,34.41826629638671875,-119.85006713867207395,-0.06267214904147173915,-0.015060550126965402407,0.055768765570986554569,0.22246940880443594191,0,0,0
2021-03-18-23-15-05,1615829097991258589,34.418266296386704539,-119.85006713867173289,-0.063878392150791357684,-0.0089854581486174568694,0.077347789871512404036,0.23071255542417981599,0,0,0
2021-03-18-23-15-06,1615829098991254891,34.418266296386732961,-119.85006713867191763,-0.067482283080487981408,-0.014849169816177293021,0.055810218599017878682,0.22454108852619308889,0,0,0
2021-03-18-23-15-07,1615829099991224213,34.418266296386768488,-119.85006713867181816,-0.06597661384197621437,-0.0072105596050817547318,0.078569183798383041006,0.23485488086097167093,0,0,0
2021-03-18-23-15-08,1615829100991238223,34.418266296386896386,-119.85006713867194605,-0.063553371289847865322,-0.0082847881570395492945,0.053410892666655385153,0.22728161473486349631,0,0,0
2021-03-18-23-15-09,1615829101991229473,34.418266296386498482,-119.85006713867221606,-0.063537976188499253882,-0.016273112865167489033,0.0541680044279874498,0.23361742737030044559,0,0,0
2021-03-18-23-15-10,1615829102991254785,34.41826629638671875,-119.85006713867194605,-0.07455955096717395425,-0.0043973795530760440356,0.053742635649558945232,0.23480677672722277682,0,0,0
2021-03-18-23-15-11,1615829103991228326,34.418266296386832437,-119.85006713867288397,-0.065020176563865439423,-0.0048516052920583680949,0.077656578634016815155,0.24657091703209862987,0,0,0
2021-03-18-23-15-12,1615829104991254263,34.418262481689431809,-119.85006713867183237,-0.069443781333856202664,-0.012940094959759070037,0.079851930643230276119,0.24872248026963211798,0,0,0
2021-03-18-23-15-13,1615829105993127127,34.418262481689396282,-119.85006713867211658,-0.072586186172374236869,-0.0031295745937479964999,0.077757590270832288581,0.24976709904357988212,0,0,0
2021-03-18-23-15-14,1615829106991241919,34.418262481689374965,-119.85006713867183237,-0.073247507559482977202,-0.010263120814379158435,0.055399025776698224144,0.24465561924920409265,0,0,0
2021-03-18-23-15-15,1615829107991283533,34.418262481689524179,-119.85006713867153394,-0.074933134328649189659,-0.017740560102414537624,0.079106741650715878267,0.25500493941455704139,0,0,0
2021-03-18-23-15-16,1615829108991300772,34.418262481689346544,-119.85006713867191763,-0.074029666299388133255,-0.0014176654242246513118,0.079004395686747427852,0.25655596694826954263,0,0,0
2021-03-18-23-15-17,1615829109991227230,34.41826248168944602,-119.85006713867186079,-0.074864478897690281411,0.002903238759044847201,0.077279063844986839449,0.25999831256703404003,0,0,0
2021-03-18-23-15-18,1615829110991223428,34.418262481689438914,-119.85006713867178973,-0.075361459131125199673,-0.020164888777081616672,0.054310128192639431366,0.25526475089685596309,0,0,0
2021-03-18-23-15-19,1615829111991292021,34.418262481689332333,-119.85006713867198869,-0.07609837560314659799,-0.019506816687125009407,0.053930092896770538691,0.2587298442014632216,0,0,0
2021-03-18-23-15-20,1615829112991246969,34.41826248168946023,-119.85006713867163342,-0.080271473142228641495,-0.0033350288652184124048,0.078388628617864622439,0.26593358950249768036,0,0,0
2021-03-18-23-15-21,1615829113991253062,34.418262481689666288,-119.85006713867159078,-0.076791425995837742091,-0.0053751429680533209521,0.077669238193378217772,0.26884274462440566067,0,0,0
2021-03-18-23-15-22,1615829114991276864,34.418262481689332333,-119.85006713867178973,-0.080049062719767083429,-0.021201367272515043993,0.056148527052668407988,0.26283777875254377143,0,0,0
2021-03-18-23-15-23,1615829115991318530,34.418262481689438914,-119.85006713867194605,-0.080297124389476087769,-0.0026887891930278307213,0.07854565967991394837,0.27052195560815106568,0,0,0
2021-03-18-23-15-24,1615829116991213946,34.418262481689588128,-119.85006713867221606,-0.079399720231181483698,-0.012594988435402158442,0.055353928435622395954,0.26414447056633327815,0,0,0
2021-03-18-23-15-25,1615829117991336029,34.418262481689389176,-119.85006713867214501,-0.080489923435377683236,-0.0176925020984339057,0.078159689295003539899,0.27543942318238157085,0,0,0
2021-03-18-23-15-26,1615829118991338685,34.41826248168946023,-119.8500747680662073,-0.086778972606128948475,-0.0058388783344966634775,0.077087478718332699823,0.27651651490415751766,0,0,0
2021-03-18-23-15-27,1615829119991225351,34.418262481689524179,-119.85007476806626414,-0.084467449012562187405,-0.0016238633186618591821,0.077246511407666682003,0.27862241977968466022,0,0,0
2021-03-18-23-15-28,1615829120991501601,34.418262481689261278,-119.85007476806653415,-0.084919451651375210677,-0.019232362013036824466,0.056009018697874002335,0.27130618311623116989,0,0,0
2021-03-18-23-15-29,1615829121991239986,34.418262481689566812,-119.85007476806671889,-0.093422207904885423702,-0.022399560950352791905,0.055812569674544038056,0.27259035374959988962,0,0,0
2021-03-18-23-15-30,1615829122991193319,34.418262481689474441,-119.85007476806640625,-0.089384517754517528454,-0.011692831299162018827,0.055135718396911982675,0.269385770286966586,0,0,0
2021-03-18-23-15-31,1615829123991249777,34.418262481689630761,-119.85007476806674731,-0.089902185845586971014,-0.01372872903850120424,0.057023916835136419234,0.26731630568035791296,0,0,0
2021-03-18-23-15-32,1615829124991251964,34.418262481689481547,-119.85007476806677573,-0.090871260392800579098,-0.014434077807540118127,0.078926981884192906613,0.27279313123694903798,0,0,0
2021-03-18-23-15-33,1615829125991250766,34.418258666991988548,-119.85007476806643467,-0.089146407736650223885,-0.013651765379138824236,0.078702978642896395667,0.26730147970188317119,0,0,0
2021-03-18-23-15-34,1615829126991274880,34.418261757730270745,-119.850062919487101,-0.098525017630950270653,0.17972760405638718573,0.042649475991001037367,0.2947946048540409647,0,0,0
2021-03-18-23-15-35,1615829127991248161,34.418264639896023027,-119.85004927227765847,-0.084827395667269295254,0.20035881899256094418,0.14222538886994084972,0.13964380848276045088,0,0,0
2021-03-18-23-15-36,1615829128991284671,34.41826506198544422,-119.85003537459917311,-0.016318439925842441462,0.13454389349993123304,0.15238370294971642638,-0.1581543539801063547,0,0,0
2021-03-18-23-15-37,1615829129991234723,34.418261619283853747,-119.85002222684251194,0.060262710665774002483,0.26519042821203403504,0.13807925872378157273,-0.51751690795920379795,0,0,0
2021-03-18-23-15-38,1615829130991237483,34.418253982999324592,-119.85001147765770213,0.13211938242442713975,0.1483036844593257908,0.10509132728642264776,-0.97269804791787672915,0,0,0
2021-03-18-23-15-39,1615829131991244149,34.418243506560799005,-119.85000545730973442,0.1994315416359692672,0.2328925245143734224,0.11802045312533021582,-1.3446194657644903181,0,0,0
2021-03-18-23-15-40,1615829132991429669,34.418232233686538279,-119.85000452335199839,0.2775077177059626643,0.23786830586698573531,0.19848876850133587157,-1.7055476466738566099,0,0,0
2021-03-18-23-15-41,1615829133991247586,34.418220961869408825,-119.85000675692606364,0.45871042190156580132,0.19458552519004015946,0.25354173807087299064,-1.7920174496718976886,0,0,0
2021-03-18-23-15-42,1615829134991283939,34.418209728648903933,-119.85000921759511527,0.66859037043524072175,0.21095652754831636932,0.20829845980923011872,-1.7919837878632580708,0,0,0
2021-03-18-23-15-43,1615829135992992012,34.418199942052240203,-119.85001164142943253,0.85576032315987315968,0.34311565459785442478,0.22753362873285712387,-1.8898497418077242482,0,0,0
2021-03-18-23-15-44,1615829136991237637,34.41819778660014606,-119.85001276514555002,0.99594497821419614159,-0.024629733524391475563,0.28360279322727793838,-2.0112398105185271824,0,0,0
2021-03-18-23-15-45,1615829137991454094,34.418197797855192732,-119.85001277800270714,1.1166609133081744076,0.034265272111380577769,0.30488152326626211108,-1.7595282310158135708,0,0,0
2021-03-18-23-15-46,1615829138991227167,34.418197800844374967,-119.85001278462573282,1.2186813141149077655,-0.032327208671562336628,0.26907055162337961685,-1.59342796222608718,0,0,0
2021-03-18-23-15-47,1615829139991218521,34.418197802701165244,-119.85001278766596045,1.2913601490790476145,0.00023073758479136651889,0.20960866042359857508,-1.4347642832173925775,0,0,0
2021-03-18-23-15-48,1615829140991504875,34.418197804001763984,-119.850012789755894,1.3222541318740848038,-0.0090605117248737064573,0.16299860590254761084,-1.2583195712941559474,0,0,0
2021-03-18-23-15-49,1615829141991650187,34.418197803994196704,-119.85001279062106505,1.3322642485778566357,0.00089707235134463692971,0.11821161352992060056,-1.1199817211901630376,0,0,0
2021-03-18-23-15-50,1615829142991237790,34.418197804172542931,-119.85001279117875583,1.3238493017100529947,0.0021194835551493510992,0.097946958748127047056,-0.99646301340080167819,0,0,0
2021-03-18-23-15-51,1615829143991225446,34.418197804194264222,-119.85001279140276154,1.3035688869295347647,-0.021002722485689743342,0.10343314443967414895,-0.89009327961719619804,0,0,0
2021-03-18-23-15-52,1615829144991235863,34.41819780418833119,-119.85001279148838194,1.2669981672575203469,0.0039541644651717887046,0.080625699111027140931,-0.81212705166869247897,0,0,0
2021-03-18-23-15-53,1615829145991238831,34.418197804183151334,-119.85001279152942288,1.2104977081057739507,0.012833098485237479786,0.093627349901078127381,-0.73554988727050296671,0,0,0
2021-03-18-23-15-54,1615829146991247737,34.418197804185886923,-119.85001279155108023,1.1618182354218198338,0.0053473065870835887956,0.095430249841627512453,-0.67944987448722060641,0,0,0
2021-03-18-23-15-55,1615829147991321799,34.418197804189354372,-119.85001279156897169,1.1059429395721140921,-0.007940767226751454036,0.12553708483820261166,-0.617252147072513635,0,0,0
2021-03-18-23-15-56,1615829148991258413,34.418197804187158795,-119.85001279156837484,1.0375426431232519509,-0.0030862836937622594412,0.1372025621855827715,-0.57194007452424810989,0,0,0
2021-03-18-23-15-57,1615829149991196329,34.418197804184970323,-119.85001279156836063,0.98817832524980642184,0.0062899864653618619073,0.12695593463888543706,-0.54306221712826940884,0,0,0
2021-03-18-23-15-58,1615829150991234350,34.418197804182824484,-119.85001279156064413,0.92294683953954215205,0.0092438591828330838457,0.13176350004519218895,-0.50469458578983616981,0,0,0
2021-03-18-23-15-59,1615829151991226329,34.418197804180373112,-119.85001279155423504,0.86094504683936878831,-0.0034102127120242747491,0.15094177703150235548,-0.45064424782593215379,0,0,0
2021-03-18-23-16-00,1615829152991243047,34.418197804179165189,-119.85001279155001441,0.80789045305569473499,-0.0044776228248715492161,0.14362990346448434309,-0.40180303673963646549,0,0,0
2021-03-18-23-16-01,1615829153991241849,34.418197804176763555,-119.8500127915414879,0.74614657322822663943,0.0051998851297614416198,0.11077489864934095265,-0.35306333745381462963,0,0,0
2021-03-18-23-16-02,1615829154991337317,34.418197804174795351,-119.85001279153247822,0.68275458560329449487,-0.0049291471653534740111,0.12742104683483854166,-0.29998457587059140783,0,0,0
2021-03-18-23-16-03,1615829155991238150,34.418197804173729537,-119.85001279152622544,0.60666424852334799311,-0.0080370018410148794802,0.12525486067435151472,-0.26156139294987268418,0,0,0
2021-03-18-23-16-04,1615829156991387368,34.418197804172741883,-119.85001279151799736,0.53367768478637866991,-0.0025843909743679246635,0.098747099690558864937,-0.24619160560948685768,0,0,0
2021-03-18-23-16-05,1615829157991347628,34.418197804171185794,-119.85001279150914399,0.45548632216737777734,0.00051920331859019760827,0.094336372683985439402,-0.24168905788667122136,0,0,0
2021-03-18-23-16-06,1615829158991256743,34.418197804169821552,-119.85001279149975062,0.37126366467053262266,-0.0011260367382661621433,0.085707178766092004252,-0.24858945565223738994,0,0,0
2021-03-18-23-16-07,1615829159991575336,34.418197804168691789,-119.85001279149220466,0.29203085452458699134,-0.0045346250717762494678,0.10540824332533749175,-0.25423273755152497877,0,0,0
2021-03-18-23-16-08,1615829160991332471,34.418197804166837273,-119.85001279147994069,0.21763821896464705108,-0.0041063534715215970275,0.10165825527512410698,-0.26992370812152016724,0,0,0
2021-03-18-23-16-09,1615829161991395908,34.418197804166268838,-119.85001279147914488,0.12656409022993470037,-0.0031358677453910892112,0.10132886092383637522,-0.28755505082001348027,0,0,0
2021-03-18-23-16-10,1615829162991393200,34.418197804165423292,-119.85001279147090258,0.039083064794076909088,-0.00076424395072854792513,0.082420493656572210717,-0.30441612405579843159,0,0,0
2021-03-18-23-16-11,1615829163991305387,34.418197804164279319,-119.8500127914637261,-0.041763082732996982538,-0.010813883669294931805,0.10687250076210365324,-0.30560787136647327156,0,0,0
2021-03-18-23-16-12,1615829164991604605,34.418197804163860098,-119.8500127914558675,-0.11821423669333049056,-0.016525098106110209378,0.097244151865086059239,-0.30647261573462686313,0,0,0
2021-03-18-23-16-13,1615829165991219396,34.418197804164762488,-119.85001279145591013,-0.15558306274193886565,-0.03129263819531347135,0.047134845187071332251,-0.32040609854906731968,0,0,0
2021-03-18-23-16-14,1615829166991418458,34.418197804164933018,-119.85001279146160869,-0.11675463339243706551,0.0029471865517561256741,0.05290705923674852984,-0.32770482303879322483,0,0,0
2021-03-18-23-16-15,1615829167991327468,34.418174743652372172,-119.85005950927747165,-0.099480982243788290686,-0.013135264524015959758,0.096382233444293849423,-0.33495954851248888051,0,0,0
2021-03-18-23-16-16,1615829168991210489,34.418178558349417528,-119.85005950927782692,-0.11642323103138282891,-0.02291053750490264565,0.10357289522135006143,-0.35392019059324630881,0,0,0
2021-03-18-23-16-17,1615829169991224707,34.418182373046910527,-119.85007476806630677,-0.13052126240462255669,-0.00058912034196396381638,0.063573126014545039419,-0.37506293105689680889,0,0,0
2021-03-18-23-16-18,1615829170991301217,34.418182373046825262,-119.8500976562501279,-0.12029758374081599148,0.006375323288941458881,0.05102855248560243806,-0.39730007882120144114,0,0,0
2021-03-18-23-16-19,1615829171991236425,34.418178558349595164,-119.85010528564470178,-0.10721626263454235584,-0.003996096159630376822,0.049350568601552555204,-0.41736889538072602379,0,0,0
2021-03-18-23-16-20,1615829172991209758,34.418174743652059533,-119.85009002685509927,-0.12010640001895954432,-0.017627231566598580703,0.073036168350133531812,-0.43009828902583796539,0,0,0
2021-03-18-23-16-21,1615829173991263143,34.418174743652507175,-119.85009002685532664,-0.13038969347353415729,-0.0030593217891847035265,0.081148894748443736735,-0.44595425363562618548,0,0,0
2021-03-18-23-16-22,1615829174991361737,34.418178558349964646,-119.85008239746062486,-0.12418939776386059282,-0.0029338087028824484138,0.071214265223553882556,-0.46652666670175357844,0,0,0
2021-03-18-23-16-23,1615829175991224080,34.418178558349630691,-119.85008239746122172,-0.12128697713701468153,-0.010048517521908014935,0.062728221609705786532,-0.48146247868048752672,0,0,0
2021-03-18-23-16-24,1615829176991233038,34.418178558349900698,-119.85008239746100855,-0.12535678973550692938,-0.010413148179759228878,0.049450734786452697767,-0.50005823218193812263,0,0,0
2021-03-18-23-16-25,1615829177991669235,34.418178558349644902,-119.85008239746100855,-0.12296415001900554143,-0.0049147413006108264105,0.076007966180926589406,-0.50838335142430002289,0,0,0
2021-03-18-23-16-26,1615829178991227412,34.418178558349595164,-119.85008239746085223,-0.12160203252278682651,-0.012745375229837315606,0.085790080169195231941,-0.52402060045150833378,0,0,0
2021-03-18-23-16-27,1615829179991237985,34.418178558349417528,-119.85007476806659099,-0.12645604406814095477,-0.010306629718221053255,0.060071365841316490264,-0.54717673752845008561,0,0,0
2021-03-18-23-16-28,1615829180991332620,34.41817855834960227,-119.85007476806646309,-0.1308382283717302863,0.00065804569205137183538,0.060988128061319979434,-0.5556653390597688924,0,0,0
2021-03-18-23-16-29,1615829181991292515,34.418178558349680429,-119.8500747680663352,-0.1224765488218388515,0.00044387449352857068479,0.0597758373968234058,-0.57687695116922432792,0,0,0
2021-03-18-23-16-30,1615829182992007306,34.418178558349595164,-119.85007476806605098,-0.12636591768458568796,-0.015697961410476028027,0.077493478093943982121,-0.58198649782051081747,0,0,0
2021-03-18-23-16-31,1615829183991293139,34.418178558349296736,-119.85007476806592308,-0.12953831640539090198,-0.017267267637336276842,0.076669862631541643716,-0.59683014675455636766,0,0,0
2021-03-18-23-16-32,1615829184991266108,34.41817855834960227,-119.8500747680663352,-0.13165699418635912199,-0.012267662313945595573,0.081078553836728461945,-0.60445411729933584688,0,0,0
2021-03-18-23-16-33,1615829185991231837,34.418178558349609375,-119.85007476806740101,-0.1313372317940377787,-0.0094051718822384510615,0.083765059343554076898,-0.62122640437900966681,0,0,0
2021-03-18-23-16-34,1615829186991221315,34.41817855834960227,-119.8500823974609375,-0.1266633363033516646,-0.0025549386751793508842,0.061661547155447068991,-0.64473781198715374163,0,0,0
2021-03-18-23-16-35,1615829187991208190,34.418182373046306566,-119.85008239746184699,-0.13293004557713261615,-0.024017143468943284723,0.077953822980937143017,-0.65410599195759555613,0,0,0
2021-03-18-23-16-36,1615829188991234387,34.41818237304679684,-119.85009002685561086,-0.12110014450565584343,-0.01079306434571919264,0.079640617369716490415,-0.66521313165109496879,0,0,0
2021-03-18-23-16-37,1615829189991213814,34.418182373046946054,-119.85009002685535506,-0.12862846195817956296,-0.011896346379791873649,0.07827868388293944546,-0.67833590118306275052,0,0,0
2021-03-18-23-16-38,1615829190991222668,34.418182373046946054,-119.85008239746109382,-0.12826192071464900812,-0.0086478854760699882392,0.061109741285082029572,-0.70379702427070844895,0,0,0
2021-03-18-23-16-39,1615829191991252459,34.418182373046832367,-119.85009002685532664,-0.13230864560907795724,-0.0039540462937248744071,0.061280062104844032489,-0.71181827319367940721,0,0,0
2021-03-18-23-16-40,1615829192991305115,34.418178558349659113,-119.8500900268557956,-0.12653540441955815621,0.01230989638668191638,0.06211214707836415494,-0.72307503230249303705,0,0,0
2021-03-18-23-16-41,1615829193991305011,34.418178558349467266,-119.85009002685576718,-0.13399290012444126097,-0.0076291125860431206751,0.077136302683709731531,-0.73258501091775773961,0,0,0
2021-03-18-23-16-42,1615829194991218708,34.418178558349858065,-119.85009002685568191,-0.13086334298925691999,-0.022047868915083368435,0.079121060387505520728,-0.74526807990707011342,0,0,0
2021-03-18-23-16-43,1615829195991302041,34.418178558349652008,-119.85009002685538348,-0.12915793048678869681,-0.010167167151711320114,0.07891107315254193566,-0.75138428299852721981,0,0,0
2021-03-18-23-16-44,1615829196991353968,34.418178558349595164,-119.85009002685541191,-0.13071325975988276613,0.0041475318797537363141,0.063220055771166169811,-0.76504942073507242739,0,0,0
2021-03-18-23-16-45,1615829197991271467,34.418178558349517004,-119.8500900268555398,-0.13421917249892700852,-0.005559485988671418466,0.062197669252155814157,-0.77531565169336513765,0,0,0
2021-03-18-23-16-46,1615829198991255165,34.418178558349609375,-119.85009002685571033,-0.13185375873396976143,-0.0039394677844068965236,0.060570246619206687122,-0.78194352673295164369,0,0,0
2021-03-18-23-16-47,1615829199991225477,34.418178558349630691,-119.85009002685563928,-0.13153447010376295712,-0.015927081909995043779,0.076993657948171881356,-0.77736785769129734813,0,0,0
2021-03-18-23-16-48,1615829200991332300,34.418178558349595164,-119.85009002685541191,-0.13348509420646526014,0.0051235489099144141192,0.060909826564397653859,-0.78984305972904844673,0,0,0
2021-03-18-23-16-49,1615829201991251310,34.418178558349474372,-119.85009002685586665,-0.13263076879260046748,0.0057279612633940714742,0.062383335776732461164,-0.80118025349856836215,0,0,0
2021-03-18-23-16-50,1615829202991247768,34.418178558349609375,-119.85009002685599455,-0.13174578026259137209,-0.0082825662988026439726,0.062756269901978106729,-0.80648907686315207677,0,0,0
2021-03-18-23-16-51,1615829203991228184,34.418178558349644902,-119.85009002685538348,-0.13311755056366811334,-0.013400625404672310628,0.077671124177826442181,-0.80163067227417961202,0,0,0
2021-03-18-23-16-52,1615829204991203131,34.418174743652066638,-119.85009765625011369,-0.13719618733933050536,-0.00048886104441535468881,0.081983242192932001546,-0.81152600876561242771,0,0,0
2021-03-18-23-16-53,1615829205991249173,34.418174743652322434,-119.85009765625008527,-0.13488487214575678452,-0.03964382103526557094,0.081551329766725452752,-0.80870760143028386224,0,0,0
2021-03-18-23-16-54,1615829206991298964,34.418174743652429015,-119.8500976562502558,-0.13775286382765083992,-0.0050024411080446399072,0.061068415011436692763,-0.80322082952255591248,0,0,0
2021-03-18-23-16-55,1615829207991372922,34.418174743652407699,-119.85009765625005684,-0.13601257543427852648,0.017548207052469934342,0.061677452806356322657,-0.79887833985734835185,0,0,0
2021-03-18-23-16-56,1615829208991291099,34.418174743652365066,-119.85009765624998579,-0.14226192056590894475,-0.0036956586018233247848,0.063902410605675197264,-0.79007528050593434088,0,0,0
2021-03-18-23-16-57,1615829209991294796,34.418174743652279801,-119.85009765625041211,-0.13665035881323120415,-0.0059521906256822113349,0.064130331660940481653,-0.7851963020014285366,0,0,0
2021-03-18-23-16-58,1615829210991296202,34.418174743652357961,-119.85009765625001421,-0.138738714529942464,-0.0019879271772734207792,0.080192469106633620934,-0.76841643144527427278,0,0,0
2021-03-18-23-16-59,1615829211991254275,34.418174743651960057,-119.85009765625046896,-0.13771527862208299275,-0.011953511652339843599,0.081113400217293019079,-0.76416867797838050613,0,0,0
2021-03-18-23-17-00,1615829212991257816,34.418174743652443226,-119.85009765625008527,-0.14364799531585439873,-0.03485555108625736781,0.079112742566011889922,-0.75250162374613493999,0,0,0
2021-03-18-23-17-01,1615829213991236513,34.418174743652315328,-119.85009765624998579,-0.13852983951796374318,0.0089667431590566924055,0.063899084060665856111,-0.73601917236104741349,0,0,0
2021-03-18-23-17-02,1615829214991224638,34.4181747436520169,-119.85009765624967315,-0.14108944239129833642,0.01523881822390631309,0.062220895831937586551,-0.72631741738921007379,0,0,0
2021-03-18-23-17-03,1615829215991269013,34.418174743652215852,-119.85009765624977263,-0.142903857266025891,-0.011485901896863144264,0.060741538909437946259,-0.71664119389806058003,0,0,0
2021-03-18-23-17-04,1615829216991241877,34.418174743652315328,-119.85009765625001421,-0.13961685629991249513,-0.016377190610161459355,0.078753346761066073123,-0.69176327969442996668,0,0,0
2021-03-18-23-17-05,1615829217991379689,34.418174743652194536,-119.85009765625005684,-0.14168430203076509688,-0.00048693857484166040272,0.079939460422174840604,-0.67920535980375085217,0,0,0
2021-03-18-23-17-06,1615829218991265261,34.418174743652642178,-119.85009765624954525,-0.13812986960241926959,-0.025338157463477700704,0.079182550068853246872,-0.67010859694726487845,0,0,0
2021-03-18-23-17-07,1615829219991239688,34.418174743652798497,-119.85009765624950262,-0.14426497958666029131,-0.028262813749048019268,0.057136163755922009244,-0.66395004764550991094,0,0,0
2021-03-18-23-17-08,1615829220991224584,34.418174743652308223,-119.85009765624975842,-0.14193473518538377021,0.010250023193133443733,0.061518604849211712404,-0.64686706406921279378,0,0,0
2021-03-18-23-17-09,1615829221991274010,34.418174743652201641,-119.85009765625005684,-0.14507080100417682478,-0.0062143637545679659279,0.079098437252023687249,-0.63020095944755039064,0,0,0
2021-03-18-23-17-10,1615829222991248437,34.418174743652350855,-119.85009765625002842,-0.14339935178537485672,-0.024182597032554029037,0.078697122646636738508,-0.62100196698175735843,0,0,0
2021-03-18-23-17-11,1615829223991226249,34.418174743652357961,-119.85010528564453125,-0.14179422113636158675,-0.0054257259170150274469,0.061687606037194517294,-0.61430377522171264459,0,0,0
2021-03-18-23-17-12,1615829224991246353,34.418174743652372172,-119.85010528564437493,-0.14528475210505950588,-0.010752568678607221306,0.083070430545085602314,-0.60242060728772206524,0,0,0
2021-03-18-23-17-13,1615829225991254425,34.418174743652350855,-119.85010528564463073,-0.14208032845738344241,-0.0075993643992521807407,0.057302156373836128644,-0.60086225789416292109,0,0,0
2021-03-18-23-17-14,1615829226991343488,34.418174743652400593,-119.85010528564453125,-0.14086782193687444331,-0.019978110144267993697,0.081494943026910737771,-0.59042083644350895621,0,0,0
2021-03-18-23-17-15,1615829227991828748,34.418174743652308223,-119.85010528564450283,-0.1437772172067504628,-0.014882709229350204669,0.080610618380827503415,-0.58094674192591511108,0,0,0
2021-03-18-23-17-16,1615829228991221976,34.418174743652329539,-119.85010528564475862,-0.14267609951185908357,-0.001986412768933544775,0.058611763290938138915,-0.5810150326341897431,0,0,0
2021-03-18-23-17-17,1615829229991276299,34.418174743652187431,-119.85010528564386334,-0.14536790700162341428,0.0032238254736043723409,0.05983249087912346359,-0.57517463899335508071,0,0,0
2021-03-18-23-17-18,1615829230991337080,34.418174743652485859,-119.85010528564463073,-0.14134886827789444608,-0.016294647201468757253,0.079696940158992438108,-0.563150693425223281,0,0,0
2021-03-18-23-17-19,1615829231991210465,34.418174743652507175,-119.85010528564430388,-0.14688312726144983622,-0.021135475240786502638,0.080723443187680418709,-0.55479809006714120301,0,0,0
2021-03-18-23-17-20,1615829232991234319,34.418174743652301117,-119.85010528564475862,-0.14692548486407844277,-0.00952533060249306264,0.078811701624198010618,-0.54465058736658089611,0,0,0
2021-03-18-23-17-21,1615829233991294006,34.418174743652372172,-119.85010528564450283,-0.14362804361785280749,-0.0046634970898954460766,0.059460239870013906205,-0.5435862544878784508,0,0,0
2021-03-18-23-17-22,1615829234991223849,34.41817474365226559,-119.85010528564470178,-0.14501212910210506402,-0.0081219433536037083377,0.062001025746761660729,-0.5409151780999916781,0,0,0
2021-03-18-23-17-23,1615829235991521088,34.418174743652365066,-119.8500976562496021,-0.14679053671146777282,-0.0065630986444586841833,0.056732416550226365259,-0.53248094130262646484,0,0,0
2021-03-18-23-17-24,1615829236991312182,34.418174743652329539,-119.85009765625011369,-0.14702517545324461645,-0.017086507614765718277,0.078329789700112187334,-0.51964122009319346773,0,0,0
2021-03-18-23-17-25,1615829237991377390,34.418174743652407699,-119.85009765624990052,-0.14540547659973471206,-0.011914637758578981372,0.078896481278490526723,-0.51851900405688877704,0,0,0
2021-03-18-23-17-26,1615829238991235618,34.418174743652151903,-119.85010528564421861,-0.1469099800543686718,-0.021241209017332979281,0.079198634385518398848,-0.50955986101560779566,0,0,0
2021-03-18-23-17-27,1615829239991253951,34.418174743652357961,-119.85010528564455967,-0.14773212006710764732,-0.011380557059436078801,0.05862829351483808682,-0.51252022292605137199,0,0,0
2021-03-18-23-17-28,1615829240991567649,34.418174743652329539,-119.85010528564453125,-0.1498381864687626519,0.0061369318087207249193,0.06073328872132673778,-0.50415781883310817335,0,0,0
2021-03-18-23-17-29,1615829241991211867,34.418174743652542702,-119.8500976562501279,-0.14637817283350237907,-0.00061611689283784651025,0.058858308867508320195,-0.5022160882230851664,0,0,0
2021-03-18-23-17-30,1615829242991251242,34.418174743652350855,-119.85009765625021316,-0.14827445226220978269,-0.022748023542216142673,0.07946941677283425598,-0.4875880120176611654,0,0,0
2021-03-18-23-17-31,1615829243991232752,34.418174743652109271,-119.85009765625008527,-0.14562087370402515552,-0.014656465452674165978,0.077113078850251356999,-0.47356644000450676124,0,0,0
2021-03-18-23-17-32,1615829244991496137,34.418174743651903214,-119.85009765624980105,-0.15490008523977885635,-0.00075629330300011816425,0.080583136845682024063,-0.47245958110725227996,0,0,0
2021-03-18-23-17-33,1615829245991294887,34.418174743652222958,-119.85009765625028422,-0.15229524990310067123,-0.0084474785850502404766,0.059150470682657760313,-0.47221286246488930471,0,0,0
2021-03-18-23-17-34,1615829246991330667,34.418174743652308223,-119.85009765625011369,-0.14945199806413717036,-0.0122483088819447649,0.05763388107424428225,-0.46449688836895092203,0,0,0
2021-03-18-23-17-35,1615829247991232907,34.418174743652436121,-119.85009765624998579,-0.15016227023307801569,0.0092665932405026386898,0.058929182572899273251,-0.45530919596723212761,0,0,0
2021-03-18-23-17-36,1615829248991196292,34.418174743652443226,-119.85009765624998579,-0.15147711302086575014,-0.0012221158926144001095,0.059176691466552307219,-0.45690874657027547023,0,0,0
2021-03-18-23-17-37,1615829249991272281,34.418174743652357961,-119.85009765625005684,-0.15341673347200607269,-0.029298607308499480251,0.080458339023339403573,-0.44328455405568700787,0,0,0
2021-03-18-23-17-38,1615829250991202541,34.418170928955078125,-119.85009765624985789,-0.15166055458346047735,-0.0091994143514916165705,0.079717293583030215953,-0.43340802943230166688,0,0,0
2021-03-18-23-17-39,1615829251991378374,34.418170928955198917,-119.85009765624980105,-0.15061999965202463314,0.0034523937734171287334,0.08128686509343001354,-0.43305857099861488901,0,0,0
2021-03-18-23-17-40,1615829252991333946,34.418170928954985754,-119.85009002685544033,-0.15342406972927935538,-0.014630497357396445024,0.06041309170712406279,-0.4368445946551106629,0,0,0
2021-03-18-23-17-41,1615829253991348581,34.418167114257869343,-119.85009002685532664,-0.15345570284300774633,-0.016494591416799750383,0.059180976613039303069,-0.43403759893594906494,0,0,0
2021-03-18-23-17-42,1615829254991234571,34.418167114257947503,-119.85009002685544033,-0.15059885008313816934,0.013867343591977367157,0.058241757092266893681,-0.42464695618425246648,0,0,0
2021-03-18-23-17-43,1615829255991258164,34.418167114258160666,-119.85009002685571033,-0.14954240421977704756,-0.0084370400784295144364,0.080887303678841185328,-0.42007728060041804596,0,0,0
2021-03-18-23-17-44,1615829256991275195,34.418167114257784078,-119.85009002685535506,-0.15032547348813865562,-0.030291446100487073173,0.079953003783763923473,-0.41643748178436773566,0,0,0
2021-03-18-23-17-45,1615829257991236653,34.418167114257713024,-119.85009002685586665,-0.15295397290849294114,-0.0046633140260221011414,0.078728235518381553537,-0.40797178418392548993,0,0,0
2021-03-18-23-17-46,1615829258991254465,34.418167114257798289,-119.85009002685551138,-0.15189197217743105606,0.012905408671171325272,0.057259431391604054262,-0.41069182688921923585,0,0,0
2021-03-18-23-17-47,1615829259991249360,34.418167114257791184,-119.85009002685518453,-0.15485349270207218741,-0.023795450775763848233,0.080326414757459788096,-0.40421954098772983066,0,0,0
2021-03-18-23-17-48,1615829260991239360,34.418167114257968819,-119.85009002685535506,-0.15193973230449966949,-0.018736093829973349267,0.073925952905459002551,-0.39214533774915050213,0,0,0
2021-03-18-23-17-49,1615829261991229099,34.418167114257798289,-119.85009002685545454,-0.15449015175823785362,-0.012208554077283776534,0.080781544837781327217,-0.41718893423540692744,0,0,0
2021-03-18-23-17-50,1615829262991237120,34.418167114257776973,-119.85009002685563928,-0.154057751288501521,-0.0022032509563119531508,0.05874463810015077142,-0.4357721955497624311,0,0,0
2021-03-18-23-17-51,1615829263991339880,34.418167114257840922,-119.85009002685535506,-0.15473931263213183684,-0.019731844129451236308,0.056573595947399482609,-0.44625430251269238013,0,0,0
2021-03-18-23-17-52,1615829264991237223,34.418167114257840922,-119.85008239746090908,-0.15512386655263485369,-0.00018138594383800739633,0.059574371610578512326,-0.45584659033958868646,0,0,0
2021-03-18-23-17-53,1615829265991250191,34.418170928954921806,-119.85008239746029801,-0.15536430615064483751,-0.00079799955854930432978,0.080209787760715939298,-0.45519767182763520852,0,0,0
2021-03-18-23-17-54,1615829266991548108,34.418167114257855133,-119.85008239746132119,-0.14957920371850716434,-0.017885323840137155871,0.077566369687736627658,-0.47128672926402459531,0,0,0
2021-03-18-23-17-55,1615829267991240868,34.41816711425806119,-119.85008239746083802,-0.15952606578309694307,-0.028626038302794754031,0.076127086800431079117,-0.4759419982046992903,0,0,0
2021-03-18-23-17-56,1615829268991253107,34.418167114257677497,-119.85008239746058223,-0.15328754886766896015,-0.0029010630494465798092,0.057559472664258932995,-0.49439636941103970447,0,0,0
2021-03-18-23-17-57,1615829269991229773,34.41816711425773434,-119.85008239746100855,-0.15091278096575308498,-0.00016861576986391122509,0.056065784161278039988,-0.50624923428056733954,0,0,0
2021-03-18-23-17-58,1615829270991304044,34.418167114256831951,-119.85008239746174752,-0.15896752261714930388,-0.014522079545686940316,0.059831541994027077902,-0.51145834131055412097,0,0,0
2021-03-18-23-17-59,1615829271991237012,34.418167114257805395,-119.85008239746061065,-0.15835177447767095904,-0.012029061868291326606,0.055035952063597577688,-0.51957184006309875546,0,0,0
2021-03-18-23-18-00,1615829272991230293,34.418167114258068295,-119.85008239746071013,-0.15431006843020991792,0.0033557926402701080022,0.079711048072723444946,-0.51435959797486840994,0,0,0
2021-03-18-23-18-01,1615829273991721126,34.418167114257549599,-119.85008239746122172,-0.1538071592758671613,-0.00012300368333483595556,0.058657682197288341097,-0.53362245385726647662,0,0,0
2021-03-18-23-18-02,1615829274991228730,34.418167114258359618,-119.85008239746058223,-0.15262389751231400514,-0.015029126764087626794,0.058505538146564860236,-0.54764366820715293382,0,0,0
2021-03-18-23-18-03,1615829275991268104,34.4181671142578125,-119.85008239746098013,-0.15506847101123552579,-0.0052200888815924486805,0.05881179235677868461,-0.54488812496369209981,0,0,0
2021-03-18-23-18-04,1615829276991238677,34.418165056392091117,-119.8500780971709645,-0.15612104577348759338,-0.022144800326143108254,0.054724211825953217314,-0.55684673903807646589,0,0,0
2021-03-18-23-18-05,1615829277991246958,34.418160064457040903,-119.85006576894159025,-0.15805626290782548438,0.016289732776281738019,0.074507922139786103566,-0.43642576798040222386,0,0,0
2021-03-18-23-18-06,1615829278991302270,34.418156071051932088,-119.85005273023375594,-0.14361083979346914163,-0.11834716417725414661,0.27382103792479867144,-0.34683340192517664313,0,0,0
2021-03-18-23-18-07,1615829279991251644,34.418153473768278161,-119.85004002070655815,0.020230670862247109726,0.14171775613350204304,0.43596309676233263586,-0.12263493405850764417,0,0,0
2021-03-18-23-18-08,1615829280991370186,34.418154424330445806,-119.85002729241294617,0.31325255056427298017,0.030588054010349193662,0.42927523860867683458,0.27625058611005126608,0,0,0
2021-03-18-23-18-09,1615829281991225029,34.418159448217330976,-119.8500159118941184,0.57840040270836678982,0.019737010740583295354,0.39932236175594809646,0.68813204325734622646,0,0,0
2021-03-18-23-18-10,1615829282991222060,34.418168174621094124,-119.85000795183240996,0.8649328838573843159,0.090905942002418360648,0.30395424095008444221,1.0952153502402142138,0,0,0
2021-03-18-23-18-11,1615829283991343362,34.41817904553732177,-119.85000434220251009,1.122202721219244248,0.20870213442861640374,0.14666350240549688722,1.4440410436339798927,0,0,0
2021-03-18-23-18-12,1615829284991265705,34.418190707860787825,-119.85000404880038616,1.269864274247840763,0.098856762453264093726,0.030808673665915373152,1.5973125726000232394,0,0,0
2021-03-18-23-18-13,1615829285991274975,34.418202367514865614,-119.85000528618719784,1.2892871681483240032,-0.010091355144776032945,-0.019911718494920793709,1.6586228155632345427,0,0,0
2021-03-18-23-18-14,1615829286991466433,34.418213990596051133,-119.85000698017779541,1.2481627563807566883,0.030417267134236796594,-0.027357487686737454874,1.6423123505939360989,0,0,0
2021-03-18-23-18-15,1615829287991255496,34.418225676232296451,-119.8500078850146906,1.1922954485614096765,0.044141505183423239422,-0.017205468523608293679,1.5967970409740788185,0,0,0
2021-03-18-23-18-16,1615829288991241901,34.418237365026215002,-119.85000874787219516,1.1562639176392539575,0.068259281191346707351,-0.0068486159906160897631,1.595838798735462305,0,0,0
2021-03-18-23-18-17,1615829289991224036,34.418249032699570478,-119.85000997228937081,1.1292700255514542818,0.060588220135409889822,-0.0027006459103595097798,1.6059067418785699655,0,0,0
2021-03-18-23-18-18,1615829290991221328,34.418260672964208879,-119.85001141109404443,1.1015303969291689867,-0.06999197726994581259,0.090776944168854983852,1.7481198154297294955,0,0,0
2021-03-18-23-18-19,1615829291991225129,34.418271144537136763,-119.85001704329276606,1.1139806875798468067,-0.068085675057597813686,0.18302243735240886213,2.2457100816368837926,0,0,0
2021-03-18-23-18-20,1615829292991224712,34.418277455821751687,-119.85002834753461798,1.2354613933779472479,-0.024992108065929250632,0.24140997179178472209,2.8124287156722593828,0,0,0
2021-03-18-23-18-21,1615829293991241066,34.418277258211965375,-119.85004184942619077,1.4153575291241593526,-0.030321195258798727679,0.21741021826063192113,-2.7992850005049443318,0,0,0
2021-03-18-23-18-22,1615829294991256066,34.418271085924367014,-119.85005321897587294,1.5843424821447298356,-0.023218849145868237366,0.25920769892108841415,-2.3162254875567214185,0,0,0
2021-03-18-23-18-23,1615829295991353409,34.418261133712789501,-119.85006029056054899,1.6589665816575298596,-0.0093432881289863354418,0.07452410105500041626,-1.9734096640354952257,0,0,0
2021-03-18-23-18-24,1615829296991368096,34.418249705065854016,-119.85006270645502013,1.6527721866625257885,0.024047114353879996129,0.03568375834336397906,-1.5574096882908960993,0,0,0
2021-03-18-23-18-25,1615829297991242054,34.418238159967991407,-119.85006052417473654,1.6994555766157466437,0.060992146312500120087,-0.062814137274186346294,-1.3982030085157159949,0,0,0
2021-03-18-23-18-26,1615829298991256585,34.418226692566129543,-119.8500580187564708,1.6483600291499969082,-0.026711408847443773862,-0.091083082744460822089,-1.3390199058063221305,0,0,0
2021-03-18-23-18-27,1615829299991225647,34.418215575979047571,-119.85005380478519044,1.559289806735934425,0.016770344525421119336,-0.10779353649333300869,-1.3252730763478792753,0,0,0
2021-03-18-23-18-28,1615829300991408928,34.418205068218803433,-119.85004787311572727,1.4508471433224920943,-0.08709950461109471076,0.057027516684614802667,-0.90467120385371357916,0,0,0
2021-03-18-23-18-29,1615829301991305490,34.418197565144829753,-119.85003713067779074,1.4402481583845880841,-0.044843526773504005511,0.066175389602549566925,-0.55745615204158738276,0,0,0
2021-03-18-23-18-30,1615829302991291532,34.418193465573523326,-119.85002400262507649,1.4977496762437474409,0.14133029250727016657,0.036248184860878558677,-0.18817994993470379961,0,0,0
2021-03-18-23-18-31,1615829303991247625,34.418193004540491131,-119.85000987923147875,1.5292970101649567827,0.045532750411321966377,-0.087726982848868456655,-0.10095866050875278164,0,0,0
2021-03-18-23-18-32,1615829304991260802,34.418192439239767566,-119.84999571425798592,1.4662844646812367433,0.14555218173068912302,-0.052764833333034812102,-0.027450488184228329092,0,0,0
2021-03-18-23-18-33,1615829305991410020,34.418192488048482858,-119.8499817117033075,1.3951117186234971435,0.10253966096786883144,-0.04850262092899747246,0.014299062008964028708,0,0,0
2021-03-18-23-18-34,1615829306991499499,34.418193266210963088,-119.84996748850039694,1.3120731553635269773,0.051208663624983101481,-0.061512298652843910851,0.0072549154187086352732,0,0,0
2021-03-18-23-18-35,1615829307991210071,34.418194413691168165,-119.84995345606957073,1.2242244147200411764,-0.078221802865625356116,0.087074572682457065942,0.24694503067351300518,0,0,0
