Time (UTC),ROS Epoch,Latitude,Longitude,Depth,Roll,Pitch,Yaw
2021-03-18-21-52-45,1615828737741012486,0,0,-0.24007191168133290571,0.23286300973202772591,0.010590153957486900249,1.8947277044848755967,0,0,0
2021-03-18-21-52-46,1615828738735040923,0,0,-0.23394147223461908558,0.20890261100238086134,0.020906328450444801315,1.8899525828217695889,0,0,0
2021-03-18-21-52-47,1615828739734811860,0,0,-0.23552571858235671343,0.20480917864521078209,0.012183105554971790374,1.8893059899522242073,0,0,0
2021-03-18-21-52-48,1615828740735045141,0,0,-0.22809768014841733108,0.23068987898858306362,0.007456808210882762307,1.9026464109742815545,0,0,0
2021-03-18-21-52-49,1615828741734715349,0,0,-0.22731478089400772302,0.20492961623760627687,0.014141948531202767209,1.8879468587486030184,0,0,0
2021-03-18-21-52-50,1615828742734381026,0,0,-0.227706649187325888,0.20583804267320415793,0.016123604218220351225,1.8923334942964786798,0,0,0
2021-03-18-21-52-51,1615828743734492692,0,0,-0.2270952675482800498,0.23069422124039209998,0.0050160628295631715795,1.8846174058292197717,0,0,0
2021-03-18-21-52-52,1615828744734468473,0,0,-0.22341087319865221561,0.25931907508085461078,0.0033043726610837089071,1.8908152152043238292,0,0,0
2021-03-18-21-52-53,1615828745734545347,0,0,-0.22057007359425886972,0.2160799139448068007,0.024464555829217415894,1.8905698333701237424,0,0,0
2021-03-18-21-52-54,1615828746734539357,0,0,-0.21656572662717624156,0.22947438989151852651,0.0027980595009214018903,1.8963295866216904884,0,0,0
2021-03-18-21-52-55,1615828747734505503,0,0,-0.21704276473272762771,0.22786922773994047753,0.0085716627656253156081,1.895918203479344033,0,0,0
2021-03-18-21-52-56,1615828748734440346,0,0,-0.21517509036572021741,0.22818054553126759787,0.0015148404791520263691,1.8989756675248452567,0,0,0
2021-03-18-21-52-57,1615828749734403471,0,0,-0.21698541217313230267,0.22795470129853032115,0.0081555794777271335,1.8995203019688853274,0,0,0
2021-03-18-21-52-58,1615828750734510762,0,0,-0.21126780516621157524,0.22611169766386071678,0.0072074523126900670242,1.8939760283731568169,0,0,0
2021-03-18-21-52-59,1615828751734534876,0,0,-0.21069968611359043975,0.22766576383498102198,0.0031609041189125733351,1.8995432931651772268,0,0,0
2021-03-18-21-53-00,1615828752734973105,0,0,-0.21040810494502751316,0.21129904036528218692,0.024144158164933690602,1.8938726727492829482,0,0,0
2021-03-18-21-53-01,1615828753734449876,0,0,-0.20995834691828280105,0.22689265917613141155,0.0037538692937954302141,1.8957405944683758392,0,0,0
2021-03-18-21-53-02,1615828754734504667,0,0,-0.21017116790943635163,0.22482193902822031339,0.0042912106296757483379,1.9061429814142289985,0,0,0
2021-03-18-21-53-03,1615828755734330917,0,0,-0.20650914938527939468,0.20954302357620613328,0.021513965309036753998,1.8988916850418171567,0,0,0
2021-03-18-21-53-04,1615828756734805552,0,0,-0.21006160528402573195,0.20973939664764434943,0.012205467462627970013,1.8978568891580025468,0,0,0
2021-03-18-21-53-05,1615828757734497218,0,0,-0.20554265391078357927,0.20358763149763586808,0.015245110004486231783,1.9016623598286266361,0,0,0
2021-03-18-21-53-06,1615828758734650238,0,0,-0.20461394193311274736,0.23102576897199270101,0.0036160355640349308229,1.9070965978236653626,0,0,0
2021-03-18-21-53-07,1615828759734504509,0,0,-0.20621023810860869552,0.20739815236205252913,0.0061091728908515075328,1.9055609734437635172,0,0,0
2021-03-18-21-53-08,1615828760734571123,0,0,-0.20474451161037354741,0.22790784365335550743,0.0085457413433103826539,1.9054937649557408541,0,0,0
2021-03-18-21-53-09,1615828761734549560,0,0,-0.2087707212559140324,0.22909683519721976697,0.0065205175829132593079,1.8973762877374080738,0,0,0
2021-03-18-21-53-10,1615828762734429247,0,0,-0.21074415055437481503,0.21750783768424805653,-0.010948691634418873317,1.901567879382902726,0,0,0
2021-03-18-21-53-11,1615828763734434299,0,0,-0.20283318475769857026,0.20385783234574367251,0.007465146906267821833,1.8914273871867837151,0,0,0
2021-03-18-21-53-12,1615828764734448205,0,0,-0.20574292225229709463,0.22809729492278837948,0.0012065944999543538104,1.9005828105720028454,0,0,0
2021-03-18-21-53-13,1615828765734443256,0,0,-0.20586828933717740697,0.23868645419716585931,0.010402091048930512882,1.9006673240763869437,0,0,0
2021-03-18-21-53-14,1615828766734421277,0,0,-0.20353150251664176018,0.23236181304562530947,0.0066018485015665031787,1.8966700022704143791,0,0,0
2021-03-18-21-53-15,1615828767734540495,0,0,-0.20279580785043871405,0.20765578200427325939,0.016756661380163316577,1.8939071691991378188,0,0,0
2021-03-18-21-53-16,1615828768734511068,0,0,-0.19952312106546984949,0.21116916785569583848,0.010468663851676796375,1.8937609305034510676,0,0,0
2021-03-18-21-53-17,1615828769734411849,0,0,-0.201046183815193652,0.23168750723131459335,0.0097490664054315345072,1.9006143517600875281,0,0,0
2021-03-18-21-53-18,1615828770734445807,0,0,-0.20613547434552506599,0.21143465756251228482,0.024164816611570889837,1.8938564558089927559,0,0,0
2021-03-18-21-53-19,1615828771773290285,0,0,-0.20844042632781759061,0.21843961122140925779,0.0060555653606188418123,1.8967582017822257612,0,0,0
2021-03-18-21-53-19,1615828772734387420,0,0,-0.20844421426012973986,0.25365547019316997401,-0.0015214582119018934397,1.9044627179396989014,0,0,0
2021-03-18-21-53-19,1615828773734458670,0,0,-0.20811202959220539976,0.26475190524699387939,-0.0060881708144006948386,1.9071926798093266076,0,0,0
2021-03-18-21-53-19,1615828774734433774,0,0,-0.20811201240697202453,0.27641935754797214431,-0.010927785742527010987,1.9100113236670179795,0,0,0
2021-03-18-21-53-23,1615828775734462784,0,0,-0.21473114460223005628,0.2303077672692034894,0.0046213697348087053735,1.8965295566041213693,0,0,0
2021-03-18-21-53-24,1615828776734487106,0,0,-0.21577994465797503687,0.20446784815981799976,0.01448265873733635932,1.8955983234728002174,0,0,0
2021-03-18-21-53-25,1615828777734458148,0,0,-0.21343064585853693815,0.22958771661671542597,0.0059427392250857623626,1.8999227559868550053,0,0,0
2021-03-18-21-53-26,1615828778734420491,0,0,-0.21523432672296541335,0.22645410548330707767,0.003706609720403155131,1.8988038369619191226,0,0,0
2021-03-18-21-53-26,1615828779734468199,0,0,-0.21033205048234421275,0.22360618357716274818,0.0011915473917048727964,1.8950769379976128981,0,0,0
2021-03-18-21-53-26,1615828780734451584,0,0,-0.2133748733268955311,0.22374191294000334018,0.026007165950554172323,1.8993723819060344127,0,0,0
2021-03-18-21-53-26,1615828781734451375,0,0,-0.2133748733268955311,0.22374191294000334018,0.026007165950554172323,1.8993723819060344127,0,0,0
2021-03-18-21-53-30,1615828782734429604,0,0,-0.22474256228075822905,0.22910633986538095352,0.0058385615626832159178,1.8984383910058391098,0,0,0
2021-03-18-21-53-31,1615828783734713406,0,0,-0.22165675890520331048,0.20778276324199135283,0.013846623982710191611,1.8923889220013330181,0,0,0
2021-03-18-21-53-32,1615828784734449187,0,0,-0.21886638213533002317,0.21223877006010696822,0.018911074602996999494,1.8922630828963111771,0,0,0
2021-03-18-21-53-32,1615828785734438405,0,0,-0.21886488124023240065,0.20640386615630368361,0.026066546475257582755,1.8882220197891845803,0,0,0
2021-03-18-21-53-32,1615828786734439967,0,0,-0.21886531381908955196,0.20081891839286666879,0.032859089559645067447,1.8843338978494719171,0,0,0
2021-03-18-21-53-35,1615828787734437258,0,0,-0.22333912727460319969,0.20969691981463456365,0.011219702096377041564,1.8937699614286964689,0,0,0
2021-03-18-21-53-36,1615828788734784966,0,0,-0.22955190547338258367,0.21154452554756672522,0.01616324921776592094,1.8921829227712847477,0,0,0
2021-03-18-21-53-36,1615828789734501216,0,0,-0.22419550402107349396,0.23060835877982130415,0.0064538361494317726327,1.8933402506182044345,0,0,0
2021-03-18-21-53-36,1615828790734446424,0,0,-0.22419556480281868649,0.23388627017555679855,0.0050782238769789735805,1.8926382114997206685,0,0,0
2021-03-18-21-53-39,1615828791734496840,0,0,-0.2318678382692768436,0.23044201955782545044,0.0047684053528569587954,1.8982103289317735495,0,0,0
2021-03-18-21-53-40,1615828792734557569,0,0,-0.22934287461822219778,0.22825178623606814932,0.0088514744310165833358,1.9008847292435260279,0,0,0
2021-03-18-21-53-40,1615828793734469496,0,0,-0.22832829574467605749,0.23318628774666233516,0.0062472094815616161997,1.9004694281428515801,0,0,0
2021-03-18-21-53-40,1615828794734418141,0,0,-0.22832818275109523221,0.24122634371669637865,0.0047572866509619947048,1.9030875119469548018,0,0,0
2021-03-18-21-53-40,1615828795734552412,0,0,-0.2308472515182281859,0.24926250713031158912,0.0032462790909958340498,1.9056935063317488321,0,0,0
2021-03-18-21-53-44,1615828796734436005,0,0,-0.23626923629923507475,0.23646275676315656189,0.0028646439318352960417,1.8978104856776698561,0,0,0
2021-03-18-21-53-45,1615828797734549390,0,0,-0.2316062971773093504,0.22893302493626407901,0.0061320097331028743104,1.8959426087445421238,0,0,0
2021-03-18-21-53-45,1615828798734540952,0,0,-0.23141502165415570036,0.21184342890094554068,0.0087327663265745324866,1.895054339818489364,0,0,0
2021-03-18-21-53-45,1615828799734493139,0,0,-0.23178755099523865035,0.24253924764160811334,0.00028968210347975100871,1.9053552298994540504,0,0,0
2021-03-18-21-53-48,1615828800734536837,0,0,-0.23659408459862282803,0.21397053475691904523,0.0100141560420664473,1.892906240032450782,0,0,0
2021-03-18-21-53-49,1615828801734437566,0,0,-0.23336061380928926901,0.21311469076179484494,0.012917018326019340593,1.8953759581517755084,0,0,0
2021-03-18-21-53-49,1615828802734484701,0,0,-0.23431567711507733653,0.23542444348315191838,0.0021341892265494405434,1.9010127254769733085,0,0,0
2021-03-18-21-53-49,1615828803734435950,0,0,-0.23431574834943608154,0.2412522103246672045,-0.0010412092433802805271,1.9031488112229180132,0,0,0
2021-03-18-21-53-49,1615828804734455273,0,0,-0.23431574834943608154,0.2412522103246672045,-0.0010412092433802805271,1.9031488112229180132,0,0,0
2021-03-18-21-53-53,1615828805734475168,0,0,-0.23675236186275555594,0.21304950343187564754,0.022837251588757576798,1.8938510009848998905,0,0,0
2021-03-18-21-53-54,1615828806734425480,0,0,-0.23806616969205499079,0.23202905758600628205,0.0066650466909717381511,1.8985620463387296031,0,0,0
2021-03-18-21-53-54,1615828807734436626,0,0,-0.23396310873208700509,0.23882629731937868311,0.008728011843877560641,1.8961399652144681482,0,0,0
2021-03-18-21-53-54,1615828808734509334,0,0,-0.23396359429874125091,0.24628163074368467078,0.0079778139866174494627,1.896109478146297711,0,0,0
2021-03-18-21-53-54,1615828809734547250,0,0,-0.23396383967244485658,0.25410906428825363879,0.0071904378401831609349,1.8960714739668278472,0,0,0
2021-03-18-21-53-58,1615828810734493552,0,0,-0.24458481709119253567,0.22966390955669740981,0.0049032676299892163918,1.895969345013380325,0,0,0
2021-03-18-21-53-59,1615828811734435426,0,0,-0.24492347361642291537,0.23191765141045425636,0.0047306534268027116905,1.9002429644285658838,0,0,0
2021-03-18-21-53-59,1615828813305609488,0,0,-0.24439243601688551144,0.22154125019850393064,0.024534775210018185121,1.8951647828820665787,0,0,0
2021-03-18-21-53-59,1615828814799419748,0,0,-0.24439744561833817715,0.23837115444842343903,0.0017770295303289607158,1.9010556238762754688,0,0,0
2021-03-18-21-54-03,1615828815734442769,0,0,-0.24675746924006322636,0.22856338628269998181,0.0024747645338525550013,1.8870403336091841062,0,0,0
2021-03-18-21-54-04,1615828816734449904,0,0,-0.24709892065398122996,0.20497940501845304806,0.013429939718539705279,1.8913452552520535477,0,0,0
2021-03-18-21-54-04,1615828817954374903,0,0,-0.24604317148679302751,0.20786780438121818526,0.013649398186383847678,1.8951259675127170024,0,0,0
2021-03-18-21-54-04,1615828819082307351,0,0,-0.24604315696224160481,0.19442789904118829014,0.017682336154030371678,1.8956169302385506015,0,0,0
2021-03-18-21-54-07,1615828819734431986,0,0,-0.25019472032414924456,0.22801938194426152329,0.0042297352982054144468,1.8972679142108104244,0,0,0
2021-03-18-21-54-08,1615828820734525371,0,0,-0.24805866754491537329,0.2057448096337134158,0.003691632644611999442,1.8924931280758836571,0,0,0
2021-03-18-21-54-09,1615828821734485266,34.418304443360106859,-119.85025787353394833,-0.24137319465873702251,0.22602144117030908976,-0.00059282928728869143786,1.898331111508251734,0,0,0
2021-03-18-21-54-10,1615828822734762870,34.418304443359375,-119.850250244140625,-0.23965366869256710114,0.2281538914739531243,0.0037060674513313346737,1.8981662424435532532,0,0,0
2021-03-18-21-54-11,1615828823734397505,34.418304443359303946,-119.85025024414079553,-0.24591646701922895146,0.21405269139774985021,0.023976505565139243081,1.8908810847934707233,0,0,0
2021-03-18-21-54-12,1615828824734413807,34.418304443359460265,-119.85024261474546847,-0.24660135767540111718,0.22707711508635308739,0.0048600829789537929732,1.8955887159635735895,0,0,0
2021-03-18-21-54-13,1615828825734871931,34.418304443359488687,-119.85023498535164777,-0.24250854655837780771,0.2325259429235287667,0.0085290950848891655678,1.8962734504480585063,0,0,0
2021-03-18-21-54-14,1615828826734416671,34.418304443359282629,-119.85022735595690335,-0.23721266745236452289,0.23455259097407632485,0.0037926458570624946298,1.9026449010746047108,0,0,0
2021-03-18-21-54-15,1615828827734454847,34.418304443359375,-119.8502197265625,-0.24103184410446529262,0.224945342182860053,0.025768746331267838173,1.8959904718150952796,0,0,0
2021-03-18-21-54-16,1615828828734444691,34.418304443359389211,-119.85021209716798296,-0.23759511043754077964,0.22621611593752050107,0.0041022872069369185899,1.8996215333082413501,0,0,0
2021-03-18-21-54-17,1615828829734498024,34.418308258056960369,-119.85021209716795454,-0.23852458288275701914,0.20776527074986680943,0.013515048789187886907,1.8961377930615006537,0,0,0
2021-03-18-21-54-18,1615828830734451617,34.418304443359275524,-119.85021209716813928,-0.23795007561399503238,0.22967120464009727066,0.010006218003703198222,1.9006068195647352059,0,0,0
2021-03-18-21-54-19,1615828831734865263,34.418304443359431843,-119.85022735595681809,-0.23529518536349380842,0.23708222093213066062,0.0070833470392829625539,1.8997148897782523136,0,0,0
2021-03-18-21-54-20,1615828832734394585,34.418304443359495792,-119.85022735595835286,-0.23665357704807599148,0.20324926724740957629,0.0060338082815261260758,1.8943224169393457768,0,0,0
2021-03-18-21-54-21,1615828833734436928,34.418304443359382105,-119.85022735595703125,-0.2376668629209146566,0.22956954616983427098,0.0033122835484577137742,1.8994284960148071217,0,0,0
2021-03-18-21-54-22,1615828834734499063,34.418308258056356408,-119.85022735595720178,-0.23077565381135808908,0.21017928961195933568,0.017241457699849659091,1.8955343507424697869,0,0,0
2021-03-18-21-54-23,1615828835734449480,34.418304443359403422,-119.85021972656245737,-0.23619355913441758554,0.20775336014114056948,0.012225041443513950251,1.8938362869517626486,0,0,0
2021-03-18-21-54-24,1615828836734499948,34.418304443360284495,-119.85021972656207367,-0.23569557580051236911,0.207671791014687801,0.008636257068388950367,1.895940965185002991,0,0,0
2021-03-18-21-54-25,1615828837734508906,34.418304443359375,-119.85021209716798296,-0.24009592576498667293,0.21274488084577855562,0.010541821364625354046,1.895818352810766827,0,0,0
2021-03-18-21-54-26,1615828838734445572,34.418304443359303946,-119.85021209716808244,-0.2309316141403880418,0.22768932959870979982,0.0080392668196978059325,1.9003813669455460467,0,0,0
2021-03-18-21-54-27,1615828839734440259,34.418304443359375,-119.8502197265625,-0.23714920903885416958,0.21715667123246118475,0.0093957902953972303323,1.8948248237673401828,0,0,0
2021-03-18-21-54-28,1615828840734458697,34.418304443359481581,-119.85021972656252842,-0.23620319446971663191,0.20957942248288485843,0.015932168225691774321,1.8918448010157691286,0,0,0
2021-03-18-21-54-29,1615828841734548019,34.418304443359254208,-119.85021972656255684,-0.23309730356839611365,0.21248471721753334207,0.0061690015327690011365,1.8918879885667676533,0,0,0
2021-03-18-21-54-30,1615828842734488331,34.418308258056654836,-119.8502197265623721,-0.23207318947458183134,0.23887734545369801453,0.0070271965487620656129,1.8977932388537808173,0,0,0
2021-03-18-21-54-31,1615828843734671873,34.418304443359275524,-119.85021972656294054,-0.23575848524723258537,0.23623905131047912009,0.0055597167317372785458,1.9001185626313807919,0,0,0
2021-03-18-21-54-32,1615828844734486403,34.418308258056669047,-119.85022735595687493,-0.23495693944032958189,0.21812515060239220932,0.009458602846134991915,1.8937293150988685486,0,0,0
2021-03-18-21-54-33,1615828845734490153,34.418308258056612203,-119.85021972656258527,-0.23620928602480403824,0.2292281318589907968,0.0055939847320220842039,1.9003988464706937922,0,0,0
2021-03-18-21-54-34,1615828846734517444,34.418308258056697468,-119.85021209716795454,-0.23317564659976014463,0.22025223526896031689,0.023544787538552634093,1.8931331583252917206,0,0,0
2021-03-18-21-54-35,1615828847734763694,34.418308258056640625,-119.85021209716798296,-0.23610148898555827213,0.22911698004711783527,0.0060184232936496100119,1.9002499924368165818,0,0,0
2021-03-18-21-54-36,1615828848734542391,34.418312072753927566,-119.85020446777308223,-0.23454634835332632825,0.2358716946726314434,0.0025908633904422567577,1.9027728131020467117,0,0,0
2021-03-18-21-54-37,1615828849734496766,34.418312072753920461,-119.8502044677734375,-0.23405604364902546366,0.22963503378280814005,0.0078658503652941236944,1.8990205560677348995,0,0,0
2021-03-18-21-54-38,1615828850734546766,34.418312072753899145,-119.8502044677734375,-0.23389420626610574194,0.20840640234773882833,0.010119814994423171825,1.8880002333646268564,0,0,0
2021-03-18-21-54-39,1615828851734481922,34.41831588745117898,-119.8502044677734375,-0.23915560948087377646,0.20470749210923919192,0.0035477719262566693656,1.8906984601745593366,0,0,0
2021-03-18-21-54-40,1615828852734444265,34.418315887451207402,-119.8502044677734375,-0.23560373051527061516,0.23089083235597415711,0.0043893388247902660401,1.8937139849453721308,0,0,0
2021-03-18-21-54-41,1615828853734414629,34.418312072753913355,-119.85019683837890625,-0.23458465434241379532,0.23300001224513908205,0.0029885308059332186918,1.8864782925113174894,0,0,0
2021-03-18-21-54-42,1615828854734455150,34.418308258056669047,-119.85018920898443184,-0.23495613710154028553,0.20764558181300141193,0.014725744390516990953,1.8828254123475132165,0,0,0
2021-03-18-21-54-43,1615828855734499941,34.418308258056640625,-119.85018920898438921,-0.23437030945147974137,0.20902659788236291338,0.017482929083419522509,1.8820690168068974213,0,0,0
2021-03-18-21-54-44,1615828856734440253,34.418308258056519833,-119.8501815795905685,-0.23465024562030165067,0.23182983582618288398,0.0054405286054599938037,1.8795015352224084815,0,0,0
2021-03-18-21-54-45,1615828857734554992,34.418308258056640625,-119.85018157958984375,-0.23502340976482380408,0.23233603546413900132,0.0049667970982168957797,1.8848042967475477916,0,0,0
2021-03-18-21-54-46,1615828858734442544,34.418308258056626414,-119.8501739501953125,-0.23666031086858871357,0.22671721706337527591,0.003954960110135382137,1.8819164547155804446,0,0,0
2021-03-18-21-54-47,1615828859734514262,34.418308258056683258,-119.85017395019526987,-0.23692485849218403171,0.23228206673143944605,0.0053294020250359121563,1.8874890389920997436,0,0,0
2021-03-18-21-54-48,1615828860734613168,34.41830825805664773,-119.8501739501953125,-0.23053311231743628396,0.23315519278042878826,0.020647371528439151245,1.8821091202313238178,0,0,0
2021-03-18-21-54-49,1615828861734507126,34.418308258056818261,-119.85017395019526987,-0.2339834940036502331,0.18746482198981481715,0.011262293063443966704,1.9104584327062434923,0,0,0
2021-03-18-21-54-50,1615828862734551084,34.418308258056669047,-119.85017395019528408,-0.23711552255948223356,0.21317774654166579684,0.01379162972981891333,1.881334829027216049,0,0,0
2021-03-18-21-54-51,1615828863734476344,34.41830825805664773,-119.8501739501953125,-0.24006072362263500275,0.227904458251171671,0.0055766318850244073549,1.8884247840115802042,0,0,0
2021-03-18-21-54-52,1615828864734541135,34.418308258056740101,-119.85017395019502828,-0.2400385111976446606,0.20642284454759624035,0.006049598674825414947,1.8830607763391022935,0,0,0
2021-03-18-21-54-53,1615828865734594833,34.41830825805672589,-119.85017395019508513,-0.23617042543623098516,0.2092623057547268739,-0.0065853292029138272429,1.8834781759370378129,0,0,0
2021-03-18-21-54-54,1615828866734468843,34.41830825805664773,-119.8501739501953125,-0.24058839750975505312,0.2069439848080787403,0.012186381230206976348,1.8828958136684414981,0,0,0
2021-03-18-21-54-55,1615828867734935457,34.418308258056583782,-119.85017395019551145,-0.23565718265321350389,0.20496510915554569388,0.0086196440522432506148,1.8826036229523441801,0,0,0
2021-03-18-21-54-56,1615828868734408790,34.41830825805655536,-119.85017395019559672,-0.23796664577144865937,0.20557104080956722925,0.011235485091954490813,1.8833763167816666151,0,0,0
2021-03-18-21-54-57,1615828869734474519,34.418308258056619309,-119.85017395019534092,-0.23933325291125803758,0.21244862653958121457,0.010995485317785116952,1.8823265459002140876,0,0,0
2021-03-18-21-54-58,1615828870734516706,34.418304443359375,-119.85016632080079546,-0.23983187491167562433,0.22480001359037452002,0.025302518203063676522,1.8834700133690580603,0,0,0
2021-03-18-21-54-59,1615828871734428216,34.418304443359275524,-119.85016632080002807,-0.24081256606478829152,0.20917304447865500694,0.015136325983285610006,1.8783779055167497685,0,0,0
2021-03-18-21-55-00,1615828872734408841,34.418304443359438949,-119.85016632080069598,-0.2423338333635557118,0.20711817433254306464,0.0092361814129106913074,1.8829416201990043511,0,0,0
2021-03-18-21-55-01,1615828873734507590,34.418304443359375,-119.85016632080079546,-0.24526317516359910642,0.23467361505178210845,0.0046332254312357245771,1.9088957619565765089,0,0,0
2021-03-18-21-55-02,1615828874734574725,34.418304443359375,-119.85016632080093757,-0.2417610721514984462,0.20769872820371529376,-0.00017854867598111092948,1.9031534344738563203,0,0,0
2021-03-18-21-55-03,1615828875734772798,34.418304443359375,-119.85016632080079546,-0.24144904525997820666,0.22828879332281007408,0.0017909175303574189492,1.9069906593398142647,0,0,0
2021-03-18-21-55-04,1615828876734434464,34.418304443359375,-119.85016632080079546,-0.24033423648902657588,0.22772540706970750835,0.0069486112115519612156,1.9088714337030849855,0,0,0
2021-03-18-21-55-05,1615828877734434099,34.418304443359325262,-119.85016632080096599,-0.24213026019357383745,0.21316616537708008017,0.012909316047101580122,1.9048017148345379734,0,0,0
2021-03-18-21-55-06,1615828878734405557,34.418304443359438949,-119.85016632080061072,-0.24287449694623208796,0.21234784403144324472,0.011170442162482224768,1.9021931654970278824,0,0,0
2021-03-18-21-55-07,1615828879734452900,34.418300628662109375,-119.85016632080079546,-0.24434165250866229924,0.21152598370640132708,0.013160828759911334662,1.8948869004872390676,0,0,0
2021-03-18-21-55-08,1615828880734442379,34.418300628662109375,-119.85016632080079546,-0.2455326685621030125,0.2124586615187374905,0.011354992441185408902,1.9010837511594824711,0,0,0
2021-03-18-21-55-09,1615828881734405973,34.418300628662109375,-119.85016632080079546,-0.24631390031567540477,0.21293332783920262963,0.017516698321312140774,1.9037940520894727214,0,0,0
2021-03-18-21-55-10,1615828882734540608,34.418296813964850855,-119.85016632080079546,-0.24607307716165530143,0.22942451946726288847,0.0020160597827333544274,1.9091879838837859662,0,0,0
2021-03-18-21-55-11,1615828883734528316,34.41829681396484375,-119.85015869140623579,-0.24488387573794639929,0.23263433654233370285,0.0047793182595365704679,1.9061468374733065989,0,0,0
2021-03-18-21-55-12,1615828884734564878,34.418296813964822434,-119.85015869140619316,-0.24427421321200842863,0.21188111745369914152,0.011825334458771255206,1.9038111480462285297,0,0,0
2021-03-18-21-55-13,1615828885734529981,34.41829681396484375,-119.85015869140623579,-0.24591654246026742325,0.21035621354489786317,0.017482385715235328888,1.9035505090164774877,0,0,0
2021-03-18-21-55-14,1615828886734421908,34.41829299926757102,-119.85015869140623579,-0.24716387999931341279,0.21752413753853214184,0.024099569089159177809,1.9042290180107377395,0,0,0
2021-03-18-21-55-15,1615828887734538262,34.418292999267798393,-119.85015869140526945,-0.24998592450352835614,0.2590977725046588187,0.0094115852509896527622,1.9020612932806340023,0,0,0
2021-03-18-21-55-16,1615828888734403262,34.41829299926757102,-119.85015869140623579,-0.24613667365191302383,0.22025735824562611698,0.0050211300116576231684,1.8950490291231756323,0,0,0
2021-03-18-21-55-17,1615828889734458834,34.41829299926757102,-119.85015869140623579,-0.24842339629559423431,0.21385413384038989837,0.0091253116223632135817,1.8992313054912093317,0,0,0
2021-03-18-21-55-18,1615828890734458105,34.418289184570504347,-119.85015106201156243,-0.25272639743294356141,0.23176015194394028462,0.0071315899534234138135,1.9018525448441889747,0,0,0
2021-03-18-21-55-19,1615828891734489042,34.418292999267578125,-119.85015106201171875,-0.25031771682138875823,0.21002152892266276463,0.012435626442982317466,1.8939681998979926991,0,0,0
2021-03-18-21-55-20,1615828892734435291,34.418292999267457333,-119.85015106201232982,-0.24590666948529291136,0.21053017153442776799,0.0053882544967136921862,1.8985379101412103164,0,0,0
2021-03-18-21-55-21,1615828893734587270,34.418289184570305395,-119.85015106201171875,-0.24859284083332261472,0.23767682237743845142,0.0078165902556030161796,1.8945909014938260295,0,0,0
2021-03-18-21-55-22,1615828894734404405,34.418289184570276973,-119.85015106201159085,-0.25118376882865417477,0.23395790107327144036,0.00089912261435182497509,1.9130780980404040736,0,0,0
2021-03-18-21-55-23,1615828895734496801,34.418289184570255657,-119.85015106201149138,-0.25163339083996077994,0.22283839906945152043,-0.013684165847817305814,1.9138643699125650333,0,0,0
2021-03-18-21-55-24,1615828896734438623,34.418289184570305395,-119.85015106201171875,-0.25208373329277977692,0.21743280865355396614,0.0082097235070205769325,1.9190424527702705237,0,0,0
2021-03-18-21-55-25,1615828897734603675,34.418292999267606547,-119.85015106201159085,-0.25072811069087164171,0.24562308738170735012,0.0071276999079109108759,1.9043948965208867818,0,0,0
2021-03-18-21-55-26,1615828898734511174,34.418292999267769972,-119.85015106201136348,-0.24854519664307669902,-0.0019113979533164338325,0.0170702259132215102,1.8876583679211513811,0,0,0
2021-03-18-21-55-27,1615828899734609664,34.418292999267698917,-119.85015106201161927,-0.25310167654629978085,-0.13580464270457950904,0.024461514568783853524,2.0917037260634767648,0,0,0
2021-03-18-21-55-28,1615828900734842892,34.418296813964929015,-119.85015869140613631,-0.25242268830558278747,-0.18629864770261350682,0.027056548986880757379,2.0979582200320550101,0,0,0
2021-03-18-21-55-29,1615828901734495600,34.41830062866277018,-119.85016632080102283,-0.25340751282926149424,-0.18635631125206653103,0.021653367898520001211,2.0919054860783798944,0,0,0
2021-03-18-21-55-30,1615828902734588725,34.418304443359588163,-119.85018920898410499,-0.25012333790043217441,-0.30527489468549656726,0.010245448246658902386,2.1300350226243023322,0,0,0
2021-03-18-21-55-31,1615828903734493308,34.418308258056256932,-119.85020446777376435,-0.24830012668318388047,-0.29657519314914443376,0.023139983948123134944,2.1504113215869695708,0,0,0
2021-03-18-21-55-32,1615828904734528724,34.418312072754680742,-119.85021972656110734,-0.24514872660751607647,-0.32001647094420532236,0.0084969827843273879053,2.1906889122342532161,0,0,0
2021-03-18-21-55-33,1615828905734483359,34.418315887451129242,-119.85022735595694598,-0.25123832387931610555,-0.30295202735455628584,0.036513836880468247825,2.1555726375140595863,0,0,0
2021-03-18-21-55-34,1615828906734453463,34.41831588745116477,-119.85023498535157671,-0.24915708409224085473,-0.29845084362924750865,0.017388396951471041252,2.1577606409276604005,0,0,0
2021-03-18-21-55-35,1615828907734452004,34.4183197021484375,-119.85024261474625007,-0.2497873534393124928,-0.346999393575117554,0.011128618032559869575,2.1531823901462447957,0,0,0
2021-03-18-21-55-36,1615828908734445546,34.418319702149069883,-119.85024261474497109,-0.2472463592970405577,-0.40430625608431269846,0.0070787887098615193127,2.1431013057898873342,0,0,0
2021-03-18-21-55-37,1615828909734749347,34.418323516845525489,-119.85025024414278505,-0.24819180329692566711,-0.44161075936671900788,0.089074707404529288035,2.1449252970679744124,0,0,0
2021-03-18-21-55-38,1615828910734404139,34.418323516846236032,-119.85025024414137818,-0.24645608497170481965,-0.35709826024396179589,0.10116301711855364698,2.250644948650269761,0,0,0
2021-03-18-21-55-39,1615828911734509347,34.418327331542293734,-119.85025024414331085,-0.24793677520971452166,-0.4071812412244241175,0.10308377935094774347,2.1995149206900488359,0,0,0
2021-03-18-21-55-40,1615828912734514242,34.418323516845021004,-119.85025787353664839,-0.24783386626130782249,-0.16338674240066730636,0.03351977330489275958,2.1180684190797816058,0,0,0
2021-03-18-21-55-41,1615828913734444137,34.418327331542961645,-119.850250244140625,-0.24847542712792397568,-0.035170726402402846533,0.023803313483246494459,2.0026948367517052318,0,0,0
2021-03-18-21-55-42,1615828914734364502,34.418327331543153491,-119.85025024414039763,-0.24819816080864187668,-0.058884893887870201623,0.023650963139872079738,1.9950932616752128368,0,0,0
2021-03-18-21-55-43,1615828915734504762,34.418323516845674703,-119.85025024414041184,-0.24576806467361253516,-0.079452619180573280655,0.037663261277641732483,2.0389460559266048278,0,0,0
2021-03-18-21-55-44,1615828916734498511,34.418319702148423289,-119.850250244140625,-0.24811290821000517304,-0.24310139522030529968,0.030833450204168961345,2.0103343598655101232,0,0,0
2021-03-18-21-55-45,1615828917734490230,34.418319702148217232,-119.85025024414082395,-0.24627746530351013465,-0.35254743343343342143,0.013258180172354312731,2.1478335984299898875,0,0,0
2021-03-18-21-55-46,1615828918734537417,34.418319702148544081,-119.85024261474548268,-0.24569680287798886797,-0.3465737656576349246,0.047105321175240306986,2.1283760487408160955,0,0,0
2021-03-18-21-55-47,1615828919734434083,34.418315887451171875,-119.85024261474609375,-0.24794040905158978849,-0.36101556830526104758,0.011036555374016449732,2.1397927822950633114,0,0,0
2021-03-18-21-55-48,1615828920734490072,34.418315887451399249,-119.85024261474586638,-0.24716430661386851186,-0.37388174340868202128,0.025501495190400777502,2.1598928825888381589,0,0,0
2021-03-18-21-55-49,1615828921734429551,34.41831588745125714,-119.85023498535173303,-0.24983570835013083067,-0.37534683557241654839,0.011654313186725226772,2.1656951799483743493,0,0,0
2021-03-18-21-55-50,1615828922734454655,34.418315887451043977,-119.85023498535174724,-0.24879094692523445742,-0.35832481347181377451,0.017049446338993815009,2.1705743621434692159,0,0,0
2021-03-18-21-55-51,1615828923734485957,34.418315887451186086,-119.85023498535142039,-0.24939836494723749416,-0.36884760094604573943,0.021341508049469912894,2.1604562913503908561,0,0,0
2021-03-18-21-55-52,1615828924734523560,34.41831588745116477,-119.85023498535157671,-0.25000685516559034705,-0.41721931936400957763,0.011342407874724758435,2.1847708318634468938,0,0,0
2021-03-18-21-55-53,1615828925734600227,34.418315887451392143,-119.85022735595606491,-0.25207135960603505032,0.20033667943756941487,0.0021263427041492508757,1.9598223918927333287,0,0,0
2021-03-18-21-55-54,1615828926734791893,34.41831588745116477,-119.85022735595703125,-0.25117921913513618914,0.20464423081177393615,0.0079291673006081191122,1.9224452989771787514,0,0,0
2021-03-18-21-55-55,1615828927734499393,34.418315887451207402,-119.85021972656268474,-0.25280986212166561833,0.20407701929196872537,0.0053151781591980803293,1.9242800463619638141,0,0,0
2021-03-18-21-55-56,1615828928734514340,34.418315887451107926,-119.8502197265626279,-0.25334263463117223658,0.204904178110049906,0.009492821094685102018,1.9281203299084475056,0,0,0
2021-03-18-21-55-57,1615828929734489808,34.418315887451171875,-119.85021209716798296,-0.25661915245080518799,0.1811761731043655399,0.016902904595580924701,1.9200901477309264553,0,0,0
2021-03-18-21-55-58,1615828930734617360,34.418315887450894763,-119.85021209716850876,-0.25566789438990511485,0.17978473041350573336,0.0069638741740925009377,1.9212013995387242637,0,0,0
2021-03-18-21-55-59,1615828931734533870,34.418315887451129242,-119.85020446777366487,-0.25652513471579613258,0.18003533468217863822,0.010126759622193231766,1.9200984716235236505,0,0,0
2021-03-18-21-56-00,1615828932734419443,34.41831588745116477,-119.85019683837890625,-0.25731529427624727502,0.21488284643059188395,0.0014288651448339305221,1.9256846999665415687,0,0,0
2021-03-18-21-56-01,1615828933734530432,34.418315887451484514,-119.85019683837803939,-0.25765426502242094742,0.18006217226548862365,0.0085385628708983200147,1.9210886150987014354,0,0,0
2021-03-18-21-56-02,1615828934734612671,34.41831588745117898,-119.85019683837900573,-0.256739352415965294,0.19579047315182440681,0.017461159694040419288,1.920887747026130743,0,0,0
2021-03-18-21-56-03,1615828935734433660,34.418319702148643557,-119.85019683837855098,-0.26158571060853841317,0.23066541472537338553,0.0064149751841070922626,1.9131052067977336595,0,0,0
2021-03-18-21-56-04,1615828936734434962,34.418323516847053156,-119.85020446775722291,-0.25970313662223754037,0.070413599667243254032,-0.020503687964681386463,1.8445809706458131672,0,0,0
2021-03-18-21-56-05,1615828937734551472,34.418327331542656111,-119.85018157959665075,-0.26405354028507060926,-0.48299289528521521797,-0.046676746240079287908,1.7193266474993049719,0,0,0
2021-03-18-21-56-06,1615828938734399753,34.418331146242422847,-119.85018920897441319,-0.25896366013003341289,-1.5064315984242984126,-0.0021102284881504788233,2.3400886034407659686,0,0,0
2021-03-18-21-56-07,1615828939734479596,34.41834640502928977,-119.85021209716798296,-0.26165531982299261582,-2.9581753479038286336,-0.19306765979044401838,2.156574520819277474,0,0,0
2021-03-18-21-56-08,1615828940735104700,34.418350219727216199,-119.85021209716533974,-0.26203003480063835617,2.6974905018271475576,0.10080465684661660264,2.0096423192074093222,0,0,0
2021-03-18-21-56-09,1615828941734508398,34.418357849119821879,-119.85021972653591149,-0.2649271744391009098,1.4363548772453911262,-0.077648045718292924011,1.0267798433484172094,0,0,0
2021-03-18-21-56-10,1615828942734502564,34.418350219724956673,-119.85022735595401855,-0.26229156996057828577,0.67818171485095801732,-0.058515849581027727655,0.74975158638805539102,0,0,0
2021-03-18-21-56-11,1615828943734459178,34.418346405027371304,-119.85024261474482898,-0.26402007444890607246,-0.13653033419175189533,-0.027820058652528394105,0.69133379124838345575,0,0,0
2021-03-18-21-56-12,1615828944734429959,34.418342590344487064,-119.85025024414609618,-0.26259762360987248808,-0.96498078195937209145,0.01044935828572675883,0.69220783509377148413,0,0,0
2021-03-18-21-56-13,1615828945734431834,34.418342590318601992,-119.85025024413225481,-0.26927787156165039484,-1.6815200404380814536,0.18776243361314887137,0.50732386162537679297,0,0,0
2021-03-18-21-56-14,1615828946734467042,34.418338775634325089,-119.85025787353526994,-0.2649518537932935569,-1.9169591068098630338,0.12843126399673707172,0.18066518420906041431,0,0,0
2021-03-18-21-56-15,1615828947734547822,34.418327331544091408,-119.85027313232424717,-0.2656677028358495618,-2.414320610767820785,0.13765586237587854046,-0.32617265787464050364,0,0,0
2021-03-18-21-56-16,1615828948734445791,34.41833496094382383,-119.85027313232120605,-0.27078487895750097403,-2.8451194068772243106,0.16398606076364896644,-0.69929572046687937803,0,0,0
2021-03-18-21-56-17,1615828949734488342,34.418327331545739867,-119.8502731323200976,-0.26736936497604896212,2.5288580577763788426,0.076479510272964568163,-0.90615801031446907565,0,0,0
2021-03-18-21-56-18,1615828950734479800,34.41832733155951729,-119.85028076169878375,-0.26732408477725211338,1.8165428373912404503,0.038461642185162910057,-0.75140055835536201378,0,0,0
2021-03-18-21-56-19,1615828951734512977,34.418319702146881411,-119.85028076172233114,-0.27209966325855894365,1.0769783685348057745,0.02418788969522537094,-0.77001464470134683982,0,0,0
2021-03-18-21-56-20,1615828952734577560,34.418312072754609687,-119.85028839111475918,-0.26775560848514168288,0.57074115287301774302,0.06423159552415287632,-0.90041487078042703462,0,0,0
2021-03-18-21-56-21,1615828953736094591,34.418315887452116897,-119.85029602050241238,-0.27465652653848199316,-0.16515090774613924718,0.026536188547538235721,-1.4238908305981490265,0,0,0
2021-03-18-21-56-22,1615828954734760632,34.418304443359375,-119.8502960205078125,-0.27297051526212762207,-1.1791256599423509677,0.12315507678883313991,-1.965919729095071844,0,0,0
2021-03-18-21-56-23,1615828955734444069,34.418300628661661733,-119.85029602050722985,-0.27097644479654031668,-1.8315210770787071493,0.055861593795320130251,-2.3217396743505696044,0,0,0
2021-03-18-21-56-24,1615828956734494798,34.418300628662109375,-119.85030364990235796,-0.27418079681559215377,-2.563886450052547783,0.056912665778008936224,-2.2862119850885402883,0,0,0
2021-03-18-21-56-25,1615828957734572662,34.418300628662052532,-119.85030364990223006,-0.27178171705333992181,3.0384194510216580021,0.04234405831877038201,-1.9397027216742508404,0,0,0
2021-03-18-21-56-26,1615828958735342297,34.418296813964495584,-119.85030364990062424,-0.27406125128117420076,2.1318019678311346254,0.028536819200314221534,-1.6487310841532698547,0,0,0
2021-03-18-21-56-27,1615828959734561151,34.41829299926757102,-119.85030364990235796,-0.27315685839769365817,1.6017676480013025575,0.053151952194700188836,-1.332161760502414305,0,0,0
2021-03-18-21-56-28,1615828960734436047,34.418296813964914804,-119.8502960205085941,-0.27477857282080303536,0.9001885307588249896,0.069882514001216436417,-1.6006405953207056836,0,0,0
2021-03-18-21-56-29,1615828961734392140,34.418300628663011764,-119.85028839111366494,-0.27309636931292358142,0.58489438616185418507,0.074656145020153413805,-2.1717644875784603009,0,0,0
2021-03-18-21-56-30,1615828962734419119,34.418304443359367895,-119.85028076171876421,-0.27672191225329711983,0.28693347264372009997,0.049785016236315489391,-2.9678283802227176658,0,0,0
2021-03-18-21-56-31,1615828963734536879,34.418308258056995896,-119.85025787353488624,-0.27448863676466511707,-0.20574688426530776675,0.038770110855559758445,2.4324075366130748499,0,0,0
2021-03-18-21-56-32,1615828964734424431,34.418304443359375,-119.85025787353517046,-0.27241290546312557641,-0.64675540069926440445,0.025250177588583732485,2.2764566551631251201,0,0,0
2021-03-18-21-56-33,1615828965734533857,34.418300628662606755,-119.85026550292836589,-0.27431899811127280486,-1.2433342620886398411,0.099355585812859276151,2.3324952181194826828,0,0,0
2021-03-18-21-56-34,1615828966734406149,34.41830062866219464,-119.85026550292964487,-0.27650039921577790336,-2.1259513789223998259,0.061292656825620808747,2.3069084936692232368,0,0,0
2021-03-18-21-56-35,1615828967734455002,34.418296813964730063,-119.85026550293000014,-0.2747326416645292646,-2.8478892709014749229,0.034749567830332624141,1.9485165410662939056,0,0,0
2021-03-18-21-56-36,1615828968734979116,34.418289184570404871,-119.85027313232171764,-0.27518939872610570507,3.0168307032663710388,-0.0081109141305358654211,1.5590136558511795695,0,0,0
2021-03-18-21-56-37,1615828969734438543,34.418285369873061086,-119.85027313232421875,-0.27696943393501138875,2.0070467650851253616,0.018453931481058831465,0.96189217551257544248,0,0,0
2021-03-18-21-56-38,1615828970734442084,34.418281555174381481,-119.85026550292907643,-0.27941037155449627294,1.6028974824976560676,0.08645136424375887696,0.61842028334855025928,0,0,0
2021-03-18-21-56-39,1615828971734432553,34.418281555175788355,-119.8502655029296875,-0.28124154503791509718,0.979882130076687341,0.13688135047489899399,0.44824349386780826254,0,0,0
2021-03-18-21-56-40,1615828972734627396,34.418281555176562847,-119.85026550292926117,-0.27790770753497706647,0.7251266654349195484,0.1136414366458087799,0.36748586223418844288,0,0,0
2021-03-18-21-56-41,1615828973735559583,34.418281555180868736,-119.85025787353717419,-0.28640851215850593459,0.22355109547801929604,0.11545267575746367972,0.25729194029851976122,0,0,0
2021-03-18-21-56-42,1615828974734437864,34.418285369871483681,-119.85025024414011341,-0.28247923686693449108,-0.16363192567095208307,0.031025224511858906506,0.14428849384083969332,0,0,0
2021-03-18-21-56-43,1615828975734436926,34.418285369873999002,-119.85025024414085237,-0.28290321824302577802,-0.55827968865866384185,0.019138558432923648278,0.14379201778461156436,0,0,0
2021-03-18-21-56-44,1615828976734526353,34.418285369873814261,-119.85024261474606533,-0.28398912750746646561,-0.88662383874344274926,0.063370941250790194244,0.028332618956984984698,0,0,0
2021-03-18-21-56-45,1615828977734434009,34.418285369876976176,-119.85024261474328,-0.28532339780722426603,-1.297465000394412149,0.075653950654707327605,-0.36250251550840373316,0,0,0
2021-03-18-21-56-46,1615828978734457186,34.418281555176314157,-119.85024261474544005,-0.28539867341687619184,-1.8729905507823327859,0.099420635091798784111,-0.75624377671245723853,0,0,0
2021-03-18-21-56-47,1615828979734416352,34.418289184570305395,-119.85023498535157671,-0.28402828709698735299,-2.2478773965309941651,0.017184552463980699855,-0.97414180956629592423,0,0,0
2021-03-18-21-56-48,1615828980734413799,34.418289184570177497,-119.85022735595707388,-0.28444516086807863919,-2.7742250080096737541,-0.10032727569841116966,-1.0222387131968477814,0,0,0
2021-03-18-21-56-49,1615828981734428226,34.418285369872222645,-119.85021972656343792,-0.28309801907713216806,3.0517373839378758582,-0.041803939615381736916,-0.88134375797355957172,0,0,0
2021-03-18-21-56-50,1615828982734489840,34.418289184568799044,-119.85021209716927615,-0.28512041620952721654,2.6664694978561733762,-0.019561895794079874056,-0.7745172004694627077,0,0,0
2021-03-18-21-56-51,1615828983734373850,34.418296813964488479,-119.85021209716825297,-0.28444107352877229244,2.0757077357812985241,-0.043133142880311864387,-0.66767650982704040974,0,0,0
2021-03-18-21-56-52,1615828984734450204,34.418308258056967475,-119.85021209716752821,-0.28624617042731009819,1.8011911082294405073,-0.05208047810596905941,-0.8255467636452273883,0,0,0
2021-03-18-21-56-53,1615828985734719214,34.418312072753899145,-119.85021209716798296,-0.29017206616949275944,1.4837349095878136218,-0.061593981416049284339,-0.85415322323410103333,0,0,0
2021-03-18-21-56-54,1615828986734609110,34.418308258056576676,-119.85021209716811086,-0.28569423364632073881,1.0388723272923972019,-0.065017509166399811704,-0.89249272163323356555,0,0,0
2021-03-18-21-56-55,1615828987734405203,34.418308258057209059,-119.85021972656214473,-0.28495441512699076769,0.71037307721932418936,-0.059463253667144319592,-1.1039838916870921004,0,0,0
2021-03-18-21-56-56,1615828988734789005,34.418308258056640625,-119.85021209716798296,-0.28384185788439358911,0.52261160999986933096,-0.029064461203241801629,-1.3137702804651694155,0,0,0
2021-03-18-21-56-57,1615828989734432546,34.418308258057976445,-119.8502197265584357,-0.29148052198865254114,0.28194781253213851979,-0.040662593205973304733,-1.3972583847268000845,0,0,0
2021-03-18-21-56-58,1615828990734429837,34.418308258059333582,-119.85021972655748357,-0.28652056891245225589,-0.19833983385409587052,0.0029481102168929284105,-1.6482576651528078049,0,0,0
2021-03-18-21-56-59,1615828991734413691,34.418308258058878835,-119.85021209717336887,-0.28779219029930341867,-0.70423933322543474933,0.08145009783545864579,-1.9326240623681536501,0,0,0
2021-03-18-21-57-00,1615828992734775357,34.418304443359403422,-119.85020446777315328,-0.28857067711846356994,-1.0524413951254572019,0.047163078280274217668,-2.1402282396763530059,0,0,0
2021-03-18-21-57-01,1615828993734520253,34.418304443359275524,-119.85020446777322434,-0.29023540511914058815,-1.3174793292124651334,0.029869090093041859857,-2.1496566902607492366,0,0,0
2021-03-18-21-57-02,1615828994734554419,34.418304443359829747,-119.85019683837992943,-0.29090772189999941633,-1.632271519712733987,0.019235928016928565548,-2.2065850583359125636,0,0,0
2021-03-18-21-57-03,1615828995734530773,34.418304443359502898,-119.85019683837957416,-0.29221250574463281113,-1.9719293983672068205,-0.0097769657682950563554,-2.2446484261917110103,0,0,0
2021-03-18-21-57-04,1615828996734553377,34.418308258058040394,-119.85018920898545502,-0.29192118514379972183,-2.178178727519648028,0.03630069882405191628,-2.4874027216881877678,0,0,0
2021-03-18-21-57-05,1615828997734490408,34.418308258055539284,-119.85018920898417605,-0.29389703209756329327,-2.5656472655908317826,0.058330502330715579273,-2.8902627427422502571,0,0,0
2021-03-18-21-57-06,1615828998734486240,34.41830444335421646,-119.85018920897570638,-0.29104676355645298091,-2.6572745538751192385,-0.021890643780877749175,-3.0987955750810645128,0,0,0
2021-03-18-21-57-07,1615828999734905094,34.4183044433612082,-119.85018157959090956,-0.29318338902749901953,-2.9379690613547193578,-0.077591321833394510943,3.0277911994987598554,0,0,0
2021-03-18-21-57-08,1615829000734402490,34.418308258055155591,-119.85018157959021323,-0.29838061266407511773,2.9824194686860954207,-0.059564228617098757823,2.9222766299305451554,0,0,0
2021-03-18-21-57-09,1615829001734417073,34.41830825805664773,-119.85018157958973006,-0.2946505963895728053,2.2681144244447288827,0.013683603985693270841,2.9168477275523647663,0,0,0
2021-03-18-21-57-10,1615829002734529468,34.418304443359375,-119.8501739501953125,-0.29712522661896950682,1.7619493469787519402,-0.027473742133082294098,2.7702376522457674568,0,0,0
2021-03-18-21-57-11,1615829003734510978,34.418300628657512163,-119.85018157959120799,-0.29908083054978501503,1.146135701251364214,0.0098306064053571094036,2.8042029255173126501,0,0,0
2021-03-18-21-57-12,1615829004734403217,34.41830062866177542,-119.85018157959011376,-0.29719889581427688663,0.4811696477896177937,0.014802394878685894847,2.449025166268352649,0,0,0
2021-03-18-21-57-13,1615829005734405561,34.418292999263854881,-119.85019683838602589,-0.29311080430609781633,0.24577412236626614006,0.051444421067602552622,2.1174459586899803121,0,0,0
2021-03-18-21-57-14,1615829006734470248,34.418285369874972446,-119.85020446777019743,-0.29488953406651380318,-0.33475258034412230801,0.0066094237134981395979,1.9405783175479414115,0,0,0
2021-03-18-21-57-15,1615829007734727852,34.418281555174132791,-119.85020446777733127,-0.30082894916892277681,-0.86616171637825067897,0.009194824766173437941,1.8371235445213172088,0,0,0
2021-03-18-21-57-16,1615829008734956966,34.418277740478515625,-119.85021209716798296,-0.29894643695314493392,-1.2999360874812730948,-0.0066350675708450480156,1.7027409135698183817,0,0,0
2021-03-18-21-57-17,1615829009734612330,34.418281555174409903,-119.8502120971731415,-0.2957817851628742889,-2.0807723043532782015,-0.004519611220090177621,1.712891132388355997,0,0,0
2021-03-18-21-57-18,1615829010734430611,34.418281555175788355,-119.85021209716609292,-0.2966661288525680451,-2.7062457389488137061,0.036494582325612180684,1.576562511231409669,0,0,0
2021-03-18-21-57-19,1615829011734425871,34.418281555177323128,-119.85021209714507506,-0.30186110308913177702,2.9942970355277838124,-0.0066421560491165447873,1.5872061632956810939,0,0,0
2021-03-18-21-57-20,1615829012734535193,34.418277740478423254,-119.85020446777370751,-0.29466026452636362443,2.5239981778382896138,-0.011899469720847721116,1.4677399717482755293,0,0,0
2021-03-18-21-57-21,1615829013734479256,34.41828155517602994,-119.85020446777431857,-0.30165333253985959772,1.8111019814986042409,-0.016062547879699014958,1.1474455414033031264,0,0,0
2021-03-18-21-57-22,1615829014734539672,34.418281555174324637,-119.8502120971652829,-0.2992438560581614504,1.0085777774507751481,-0.0010518557544110717847,1.1103706738385896724,0,0,0
2021-03-18-21-57-23,1615829015734443421,34.418281555175788355,-119.85021209716798296,-0.30023506575261182938,0.53899273345459897122,-0.024153706899430721355,1.237563138715479516,0,0,0
2021-03-18-21-57-24,1615829016734410713,34.41828155517727339,-119.85020446777254222,-0.29982086411276281934,0.56537968177318020935,0.31148417065789063551,1.5392294831928958754,0,0,0
2021-03-18-21-57-25,1615829017734403577,34.418285369872982926,-119.85020446777505754,-0.30066471093907476408,-0.09655084985954327792,0.25237539308052175935,1.315148474153941649,0,0,0
2021-03-18-21-57-26,1615829018734443837,34.418289184568621408,-119.85019683837690252,-0.30065710529008154994,0.10874100510557793697,-0.041622327388112272117,1.9642498410708164602,0,0,0
2021-03-18-21-57-27,1615829019734458524,34.418289184571193573,-119.85019683837877835,-0.29941917953327318314,0.060761829502373639056,-0.044549695553648779867,2.1410809886759221143,0,0,0
2021-03-18-21-57-28,1615829020734429097,34.418289184570348027,-119.85019683837970206,-0.29835109351006300349,0.11733036457490737814,-0.080048650476491747807,2.1354021848813071749,0,0,0
2021-03-18-21-57-29,1615829021734525138,34.418289184570198813,-119.85019683837874993,-0.29894537065778870044,0.046725058322167778435,-0.057944462173464002241,2.07871709515018388,0,0,0
2021-03-18-21-57-30,1615829022734848679,34.418289184570326711,-119.85019683837916205,-0.30412484148982660281,0.038282880504557581514,-0.051526768503481645833,2.0651455569027654668,0,0,0
2021-03-18-21-57-31,1615829023734414773,34.418289184570248551,-119.85019683837944626,-0.30044303840254371618,0.060498055813498256839,-0.051742783675460465864,2.0712472324639388255,0,0,0
2021-03-18-21-57-32,1615829024734550189,34.418285369872982926,-119.85019683837903415,-0.29747537664476225716,0.043957371232683492557,-0.040067533122417141322,2.0712304067644509153,0,0,0
2021-03-18-21-57-33,1615829025734423730,34.418285369873046875,-119.85019683837890625,-0.30348355393684112169,0.059582539161900566205,-0.05399585863590631446,2.0724317442936324163,0,0,0
2021-03-18-21-57-34,1615829026734438678,34.418289184570326711,-119.85019683837944626,-0.30337837222258690062,0.062977352584484169729,-0.054466213569625832047,2.0751871167421342967,0,0,0
2021-03-18-21-57-35,1615829027734408365,34.418289184570319605,-119.85018920898438921,-0.30835441132652330332,0.060612516966760239534,-0.052234530731828689165,2.0728862349938474985,0,0,0
2021-03-18-21-57-36,1615829028734899875,34.418285369873061086,-119.85018920898438921,-0.30539365363136627973,0.056566662653635566005,-0.041073021013966135029,2.0687159857488701675,0,0,0
2021-03-18-21-57-37,1615829029734516333,34.418289184570184602,-119.85018920898428973,-0.30701774689937783025,0.06473868202047758369,-0.052514957535239124853,2.0748112232556641388,0,0,0
2021-03-18-21-57-38,1615829030734561749,34.418289184570319605,-119.85018920898438921,-0.30609776122018517164,0.060728185728907063679,-0.052756207822249316652,2.0731318591946354957,0,0,0
2021-03-18-21-57-39,1615829031734519926,34.418289184570319605,-119.85018920898438921,-0.30874779578897570964,0.040010938554524283495,-0.045510564800308461741,2.0701082822919687487,0,0,0
2021-03-18-21-57-40,1615829032734639353,34.418289184570319605,-119.85018920898438921,-0.30209574526589666466,0.062443692099984363097,-0.053182484861685960786,2.0758116373455473003,0,0,0
2021-03-18-21-57-41,1615829033734469300,34.418289184570475925,-119.85018920898448869,-0.30710694976322139294,0.062619754319721734892,-0.051303508201141809209,2.0712461421152963403,0,0,0
2021-03-18-21-57-42,1615829034734564300,34.418289184570319605,-119.85018920898438921,-0.30850465512493324693,0.060543406567637896021,-0.052135147023706078506,2.0733630719181204149,0,0,0
2021-03-18-21-57-43,1615829035734442633,34.418285369873011348,-119.85019683837913362,-0.30976941413826475369,0.063707780987653395144,-0.053502850608912334851,2.0768116970048162706,0,0,0
2021-03-18-21-57-44,1615829036734396591,34.418285369873004242,-119.85018920898453132,-0.3075429179278580949,0.058079180616708990514,-0.046740459853614059471,2.0589378523447652292,0,0,0
2021-03-18-21-57-45,1615829037734430601,34.418285369873061086,-119.85018920898438921,-0.30864857560047054275,0.062392278076521201502,-0.053015798028852867407,2.0761751524343408093,0,0,0
2021-03-18-21-57-46,1615829038734455704,34.418285369873061086,-119.85018920898438921,-0.3123770744714282066,0.049059391207595823281,-0.036768336781960272996,2.0662383651497302495,0,0,0
2021-03-18-21-57-47,1615829039734602423,34.418285369873046875,-119.85018920898443184,-0.31143440853836462656,0.042152155134572127926,-0.043420477574892209216,2.0700475342906070608,0,0,0
2021-03-18-21-57-48,1615829040734550495,34.418289184570319605,-119.85018920898438921,-0.30844613250019758954,0.040793355892326917111,-0.045715823030696503548,2.0649126423422887733,0,0,0
2021-03-18-21-57-49,1615829041734683255,34.418285369873046875,-119.85019683837890625,-0.31357053945461921263,0.065754707178216340036,-0.053629474749818550894,2.075675707997694186,0,0,0
2021-03-18-21-57-50,1615829042734454505,34.418285369873068191,-119.85019683837865045,-0.31646206038338065003,0.044291588754463852295,-0.042151303607386308991,2.0656237137286779237,0,0,0
2021-03-18-21-57-51,1615829043734477942,34.418285369873061086,-119.85020446777340908,-0.31309875814539428474,0.044000738949870797645,-0.040074892963203753715,2.0705592921300222109,0,0,0
2021-03-18-21-57-52,1615829044734477785,34.418285369873061086,-119.8502044677734375,-0.31184743359734012902,0.068051573442058768681,-0.054602929482064140043,2.0744968194147799245,0,0,0
2021-03-18-21-57-53,1615829045734434035,34.418285369873061086,-119.8502044677734375,-0.31260423277851334678,0.05779127855958277743,-0.045610356586743373841,2.0651132694423179892,0,0,0
2021-03-18-21-57-54,1615829046734407941,34.418285369873217405,-119.85020446777363645,-0.31057816855539227552,0.049956050895724718464,-0.041920035472893385498,2.0647435751490004208,0,0,0
2021-03-18-21-57-55,1615829047734432055,34.418281555175774145,-119.8502044677734375,-0.30993716351661637631,0.042884498587009857451,-0.042452719827082624482,2.0732454755276266134,0,0,0
2021-03-18-21-57-56,1615829048734431326,34.418281555175788355,-119.85021209716798296,-0.31836302443362735071,0.062211504801499631356,-0.051216607807272891695,2.0711401642711271265,0,0,0
2021-03-18-21-57-57,1615829049734500492,34.418281555175802566,-119.85021209716798296,-0.32068326466941449171,0.065363422295013198782,-0.056978865557586369506,2.0737286867933639734,0,0,0
2021-03-18-21-57-58,1615829050734442523,34.418277740478515625,-119.85021209716798296,-0.31290659675335114054,0.063699995346054000267,-0.052124752587687221694,2.0765324356477687928,0,0,0
2021-03-18-21-57-59,1615829051734493929,34.418277740478515625,-119.85021209716798296,-0.31707243505059501398,0.062209465036217402589,-0.054410943308440033739,2.0745333691164944412,0,0,0
2021-03-18-21-58-00,1615829052734525282,34.418277740478536941,-119.85021209716801138,-0.31919919477767738636,0.062726764074141849736,-0.051457847653234162211,2.075217949977046672,0,0,0
2021-03-18-21-58-01,1615829053734417417,34.418277740478515625,-119.85021209716798296,-0.31822003478354216055,0.063211139666230001244,-0.050543686444068064434,2.0698762012452776027,0,0,0
2021-03-18-21-58-02,1615829054734483094,34.418277740478515625,-119.8502197265625,-0.31557121803748955369,0.041010062230112498405,-0.046064121053346937518,2.0671252457058373331,0,0,0
2021-03-18-21-58-03,1615829055734485854,34.418273925781299738,-119.85021972656230105,-0.32305491457621399176,0.047646923429905119196,-0.044069560481225379667,2.0701050707666794892,0,0,0
2021-03-18-21-58-04,1615829056734644656,34.41827392578125,-119.8502197265625,-0.319123311040769575,0.04183895131459425959,-0.052243321939127305986,2.0702373170549250858,0,0,0
2021-03-18-21-58-05,1615829057734448249,34.41827392578125,-119.8502197265625,-0.31785850458266867724,0.065882053144952990031,-0.054174918538407661195,2.0742560100390505795,0,0,0
2021-03-18-21-58-06,1615829058734651582,34.41827392578125,-119.8502197265625,-0.32237287048627816244,0.062795722794609570849,-0.053865954611563772458,2.0747640660858466255,0,0,0
2021-03-18-21-58-07,1615829059734426373,34.418273925781235789,-119.85021972656242895,-0.31875230848967123221,0.043354303193476516343,-0.04777845710875489732,2.0659030468010781689,0,0,0
2021-03-18-21-58-08,1615829060734444238,34.418273925780987099,-119.85021972656294054,-0.31828239404267771873,0.042650260123655560351,-0.048497337813541249729,2.0702132436760303236,0,0,0
2021-03-18-21-58-09,1615829061734595852,34.41827392578125,-119.8502197265625,-0.31994959903749120578,0.062464161391793365796,-0.050861629509610498112,2.0745180636479427783,0,0,0
2021-03-18-21-58-10,1615829062734486893,34.418273925781278422,-119.85022735595704546,-0.32326038113641136773,0.064314568937307137197,-0.053259609139766343755,2.0792820201545811898,0,0,0
2021-03-18-21-58-11,1615829063735041945,34.418270111083984375,-119.85022735595703125,-0.32189979192600470803,0.061151122001494015445,-0.052694161182073234739,2.0751335716803809284,0,0,0
2021-03-18-21-58-12,1615829064734562465,34.418270111083984375,-119.85022735595703125,-0.32101658959310269692,0.061885252132842231976,-0.053136116799020007007,2.0753966318145922187,0,0,0
2021-03-18-21-58-13,1615829065734490225,34.418270111088482111,-119.85023498534826558,-0.32874175169107172634,0.057053721849779935604,-0.058317088641920609982,2.0700920130774518313,0,0,0
2021-03-18-21-58-14,1615829066734787204,34.41827011108389911,-119.85023498535170461,-0.32354134623257591041,0.05381692629203994882,-0.055465057326641829805,2.079632358803702008,0,0,0
2021-03-18-21-58-15,1615829067734440850,34.418273925781292633,-119.85023498535142039,-0.32465457111831208525,0.046391797853889908676,-0.048882807370993847096,2.065566086175418814,0,0,0
2021-03-18-21-58-16,1615829068734433974,34.41827392578125,-119.85023498535157671,-0.32786977339521933272,0.041444470954611921376,-0.047120044591713546034,2.0726749846477372508,0,0,0
2021-03-18-21-58-17,1615829069734546578,34.41827392578125,-119.85024261474609375,-0.32143717632652085703,0.049000591899303246046,-0.044481695904036562539,2.0722752767805738827,0,0,0
2021-03-18-21-58-18,1615829070734902619,34.418277740478515625,-119.85024261474609375,-0.32723388306257289448,0.06517433575645105448,-0.054075516120795440178,2.074604293304532554,0,0,0
2021-03-18-21-58-19,1615829071734444754,34.418277740478515625,-119.85024261474609375,-0.3276161536886314507,0.066772595885858612719,-0.060736390650785024303,2.0785066387405759514,0,0,0
2021-03-18-21-58-20,1615829072734386785,34.4182777404783522,-119.8502502441408808,-0.32706006643484181184,0.063679253299927421339,-0.053465929449568301568,2.074341828191387016,0,0,0
2021-03-18-21-58-21,1615829073734431524,34.41827774047852273,-119.85025024414076711,-0.32598140878897646777,0.06241075791161838221,-0.053032351674264517627,2.0725968212469774166,0,0,0
2021-03-18-21-58-22,1615829074734458659,34.418277740478515625,-119.850250244140625,-0.32284611430347814887,0.044239544168476578612,-0.041126770600853124193,2.0634391328352039707,0,0,0
2021-03-18-21-58-23,1615829075734439440,34.418281555175845199,-119.85025024414066763,-0.32803671542711998477,0.04530464086012211955,-0.039560336655923594718,2.0703571954001871447,0,0,0
2021-03-18-21-58-24,1615829076734454075,34.41828155517578125,-119.85025787353517046,-0.32914528922984659376,0.044358050899023795943,-0.039694763522361925512,2.0697660262487760363,0,0,0
2021-03-18-21-58-25,1615829077734768502,34.41828155517578125,-119.85025787353517046,-0.3294629774981224779,0.063877102382279990489,-0.054428250114192465448,2.0718899365964476011,0,0,0
2021-03-18-21-58-26,1615829078734456470,34.418281555175767039,-119.85025787353529836,-0.32724354944676115053,0.064360361554533257467,-0.052381897348680782345,2.0747039742683148766,0,0,0
2021-03-18-21-58-27,1615829079734515585,34.418281555175788355,-119.8502655029296875,-0.33205110408966903579,0.063469322063189032024,-0.051026497003669568642,2.0742200934410242041,0,0,0
