Time (UTC),ROS Epoch,Latitude,Longitude,Depth,Roll,Pitch,Yaw
2021-03-18-23-09-50,1615828924811156756,34.418289184575662887,-119.85007476806646309,0,0,0,0,0,0,0
2021-03-18-23-09-51,1615828925809070766,34.418289184570710404,-119.85007476806643467,-0.14755280361160916236,0.014615897850697565433,-0.014563516432707921885,2.8301209442552948126,0,0,0
2021-03-18-23-09-52,1615828926809523214,34.418289184570319605,-119.85007476806640625,-0.14451729725431414209,0.16002273181580189965,0.019087125615606267276,2.9045621350702579555,0,0,0
2021-03-18-23-09-53,1615828927812004047,34.418285369873217405,-119.85007476806640625,-0.13506029302164715422,0.035596001156597771586,0.020789414619529829331,2.8474440495067625534,0,0,0
2021-03-18-23-09-54,1615828928808962536,34.418285369873046875,-119.85007476806640625,-0.13339174285639918138,-0.0002635770016550461909,0.015960313840760558673,2.7733480688752791821,0,0,0
2021-03-18-23-09-55,1615828929809130869,34.418285369873061086,-119.85006713867188921,-0.13153146123564932179,-0.051589477167186557904,0.022938654666394334841,2.7797227005500255714,0,0,0
2021-03-18-23-09-56,1615828930809114671,34.418285369872926083,-119.85006713867163342,-0.11903397838878003456,-0.053633214821450489462,0.021455690521732691256,2.7927395203145994884,0,0,0
2021-03-18-23-09-57,1615828931808988108,34.418285369873061086,-119.85006713867188921,-0.11509393543236186297,-0.068765602888741061971,-0.0039600943990149043913,2.9107474608094938695,0,0,0
2021-03-18-23-09-58,1615828932809001389,34.418285369873061086,-119.85006713867188921,-0.1214623495441594786,-0.037557851914169861074,0.02557045942216542439,2.9568153679479207696,0,0,0
2021-03-18-23-09-59,1615828933808945034,34.418285369872286594,-119.85005950927859431,-0.10608978986907260933,-0.038519404071339406748,-0.012397093162820387036,2.8561256007431832238,0,0,0
2021-03-18-23-10-00,1615828934809007169,34.418285369873011348,-119.85005950927728691,-0.10505163980661329226,-0.039181463359443266525,-0.011010403244583270507,2.7271496040113269999,0,0,0
2021-03-18-23-10-01,1615828935808928315,34.418285369873046875,-119.85005950927734375,-0.098927174169163190065,-0.049547585521058590263,-0.0019433266251313011021,2.6531313421300017907,0,0,0
2021-03-18-23-10-02,1615828936808930970,34.418281555175788355,-119.85005950927734375,-0.097349713470053542141,0.017831018685970423387,-0.0059148658170833992576,2.5623793052170134033,0,0,0
2021-03-18-23-10-03,1615828937808914355,34.41828155517495702,-119.8500595092777985,-0.098910274471850231914,0.0032078353919677772728,0.012218598151585298786,2.474450082725355049,0,0,0
2021-03-18-23-10-04,1615828938808924303,34.418281555174409903,-119.85005950927927643,-0.096550717205910241425,0.06548202829515571699,0.010216630593326286522,2.3413445370648968691,0,0,0
2021-03-18-23-10-05,1615828939808904355,34.418281555175788355,-119.85005950927734375,-0.089824465061272548705,0.081740698595757874112,0.094774983008639623883,2.2750507509584290133,0,0,0
2021-03-18-23-10-06,1615828940808921281,34.418281555175788355,-119.85005950927734375,-0.090407887700813663323,0.026613879647721799815,0.013196945383513300834,2.2145347709685792026,0,0,0
2021-03-18-23-10-07,1615828941809058156,34.418281555175788355,-119.85005950927734375,-0.089985606015194202767,-0.006114474457823487405,0.0017802252034483303112,2.0973546491874937026,0,0,0
2021-03-18-23-10-08,1615828942808932270,34.418281555175788355,-119.85005950927734375,-0.086139038225123587544,0.12010164795876682176,0.041226482891889154603,1.8751205583713381753,0,0,0
2021-03-18-23-10-09,1615828943808908312,34.418277740478515625,-119.85005950927734375,-0.089206178332925892271,-0.029565925970067939016,0.025045060578649736699,1.6785744016529564604,0,0,0
2021-03-18-23-10-10,1615828944809039353,34.418277740478515625,-119.85005950927734375,-0.094612630064817376807,0.016959676801585582551,0.011961428610163629335,1.5743369844139216696,0,0,0
2021-03-18-23-10-11,1615828945808953623,34.418277740478515625,-119.85005950927734375,-0.089765727423108870875,0.1097569346694889092,0.024282428820918029733,1.4887855378321235289,0,0,0
2021-03-18-23-10-12,1615828946808917165,34.418273925781242895,-119.85005950927734375,-0.08473390452887462343,0.083610428239893022639,0.028055025934690430017,1.4547550064727539088,0,0,0
2021-03-18-23-10-13,1615828947808942060,34.418273925781242895,-119.85005950927734375,-0.08381240745860078778,0.047429393044788353828,0.020470844579840351274,1.4613773308666173634,0,0,0
2021-03-18-23-10-14,1615828948808970028,34.41827392578125,-119.85006713867188921,-0.082711131230343848397,0.0071003732206577230973,0.041280113030004596253,1.4986355609238766196,0,0,0
2021-03-18-23-10-15,1615828949808916330,34.41827392578125,-119.85006713867188921,-0.082082138080474736919,0.017700853557459924476,0.02782694425917980538,1.5151698578840042675,0,0,0
2021-03-18-23-10-16,1615828950808941746,34.41827392578125,-119.85006713867188921,-0.08821246905416160744,0.02815402637471020944,-0.002996221485087153906,1.5769874186774623936,0,0,0
2021-03-18-23-10-17,1615828951809037631,34.41827392578125,-119.85006713867188921,-0.096922693185879579825,-0.078104383821838582747,0.0069248686024193937052,1.6518927974534587388,0,0,0
2021-03-18-23-10-18,1615828952808943673,34.418273925781242895,-119.85005950927734375,-0.085525869300919751814,-0.10265564058899068201,0.020267671296338416603,1.6840693604968364205,0,0,0
2021-03-18-23-10-19,1615828953809133464,34.418273925781477374,-119.85005950927721585,-0.088129718726692188313,-0.0063118172696632482768,0.044286324966233060751,1.760083690395810363,0,0,0
2021-03-18-23-10-20,1615828954809581693,34.418270111085718099,-119.85006713866586381,-0.078380703773255885891,-0.10032111482409671044,0.0057035020006246973934,1.8139638252599328272,0,0,0
2021-03-18-23-10-21,1615828955809068047,34.418270111083430152,-119.85006713867259975,-0.083174627389641875297,-0.033706205884060709554,0.037265455640970557294,1.7212188677512727519,0,0,0
2021-03-18-23-10-22,1615828956809245286,34.418270111083216989,-119.85005950928018592,-0.088720719443385415159,-0.085299353048738521532,0.0025727103331046291372,1.7451733159128723916,0,0,0
2021-03-18-23-10-23,1615828957808977212,34.418273925781278422,-119.85005950927764218,-0.083921233586343069177,-0.12652760880875826843,-0.0088886829010878746354,1.6944662796969840457,0,0,0
2021-03-18-23-10-24,1615828958809018254,34.418273925781242895,-119.85005950927734375,-0.085272380072279052587,-0.13776808984149699344,0.0067825447554934930119,1.7681686577178039599,0,0,0
2021-03-18-23-10-25,1615828959808918462,34.418273925781242895,-119.85005950927734375,-0.084559278792998779362,-0.05957512818301868851,0.023256923392809582263,1.9556919591673134207,0,0,0
2021-03-18-23-10-26,1615828960808964138,34.418277740478515625,-119.85005950927734375,-0.077848362046953042959,0.0025945101862465801829,-2.6015769004712614552e-05,2.1303507512560644344,0,0,0
2021-03-18-23-10-27,1615828961808946846,34.418277740478515625,-119.85005950927734375,-0.086361259649430310859,-0.0025459965840263711241,0.0040284216008213882126,2.3219456357096071031,0,0,0
2021-03-18-23-10-28,1615828962809031221,34.418277740479801707,-119.85005950927602214,-0.089164148755055780415,0.036769186138231796379,0.0047379254641230633682,2.3828038255596371009,0,0,0
2021-03-18-23-10-29,1615828963808903408,34.418277740480213822,-119.85005950927592266,-0.093334803260903362321,0.042152725137997310023,0.0015844175914279487894,2.4373557801084571039,0,0,0
2021-03-18-23-10-30,1615828964808897731,34.418277740478515625,-119.85005950927734375,-0.09113334184030348617,-0.021431850969049055095,-0.0078138816695638921295,2.4475582150204160392,0,0,0
2021-03-18-23-10-31,1615828965808939397,34.418277740478515625,-119.85005950927734375,-0.081308984492432859192,0.019325524254818333275,-0.0064477592008042447155,2.4501625746904527325,0,0,0
2021-03-18-23-10-32,1615828966809009084,34.418277740478323778,-119.85005950927721585,-0.082992476056040556665,0.041119436600499915946,0.022346395575901539798,2.450513464468760727,0,0,0
2021-03-18-23-10-33,1615828967808884552,34.418277740478515625,-119.85005950927734375,-0.090663013738768893912,0.052906833008693567033,0.029006293343077371033,2.4627333659939045774,0,0,0
2021-03-18-23-10-34,1615828968808916896,34.418277740478409044,-119.85005950927731533,-0.08012096253451202188,0.062415881780265608514,-0.017734800109246488808,2.444891619280892936,0,0,0
2021-03-18-23-10-35,1615828969808900541,34.418277740478515625,-119.85005950927734375,-0.089978319731759195954,0.035748399670634464775,0.014796360631780145281,2.4145132658328729569,0,0,0
2021-03-18-23-10-36,1615828970808929916,34.418277740478188775,-119.85005950927769902,-0.080028858667885116596,0.092851322819408957376,-0.012777011971772566507,2.3184105139497162007,0,0,0
2021-03-18-23-10-37,1615828971809011947,34.418277740478558258,-119.85005950927718743,-0.088809027455171926646,0.03911575854862135021,0.0063941841671859810103,2.1669002396105372377,0,0,0
2021-03-18-23-10-38,1615828972808975853,34.418277740478409044,-119.85005950927721585,-0.074079397447679981581,0.057434908348340703299,-0.010710458210944153595,1.9577872183057491995,0,0,0
2021-03-18-23-10-39,1615828973808890071,34.418277740479254589,-119.85006713867362294,-0.093198119400294890391,0.16075243677698400346,0.021149590011656709682,1.8040674632389368526,0,0,0
2021-03-18-23-10-40,1615828974808933768,34.418277740478444571,-119.85006713867105077,-0.085440163374626565407,0.12302377239648538965,-0.0041313166010384753946,1.7551116286730503724,0,0,0
2021-03-18-23-10-41,1615828975808904081,34.418277740478586679,-119.85006713867160499,-0.087794514634585638091,0.0882998847870528486,-0.0071408373453308174664,1.7108766519733258349,0,0,0
2021-03-18-23-10-42,1615828976809017049,34.418277740478416149,-119.85006713867323924,-0.099221556508449895717,0.086923274967289423931,0.024007974416390447797,1.8363745862441782641,0,0,0
2021-03-18-23-10-43,1615828977809366476,34.418277740478515625,-119.85006713867214501,-0.097615707988020716801,0.079700455043187276583,-0.00044694640217875225563,1.812281491278246115,0,0,0
2021-03-18-23-10-44,1615828978808917204,34.418277740478515625,-119.85006713867188921,-0.10585807298188280867,0.0049893529313764671193,-0.026414077669953898997,1.8746613710383017715,0,0,0
2021-03-18-23-10-45,1615828979808911162,34.418281555175006758,-119.85006713867308292,-0.09326706547004921799,0.1813218993863316697,0.026699114315184277468,1.9012708842265018117,0,0,0
2021-03-18-23-10-46,1615828980808984287,34.418285369873061086,-119.85006713867191763,-0.09822309990808092417,0.083976982251334000851,-0.016139787537394954114,1.9938974233381079326,0,0,0
2021-03-18-23-10-47,1615828981809245068,34.418285369873771629,-119.85006713867036865,-0.10601682316587060506,0.19010974749391340577,0.015004727147699462725,2.0368830772789907613,0,0,0
2021-03-18-23-10-48,1615828982809358401,34.418289184570227235,-119.85006713867214501,-0.091138331621964524532,0.08258083321626309703,-0.028096751267038550665,2.2086737240206177901,0,0,0
2021-03-18-23-10-49,1615828983809207463,34.418289184570205919,-119.85006713867176131,-0.10075143300438851868,0.044040444261782114854,0.0008069670851311254705,2.4026128838166216362,0,0,0
2021-03-18-23-10-50,1615828984808998713,34.418289184570319605,-119.85006713867188921,-0.090167284977411735203,0.012105622193052082911,-0.034753518370850916552,2.5763131153440945731,0,0,0
2021-03-18-23-10-51,1615828985809026785,34.418289184570298289,-119.85006713867160499,-0.10024346779094933657,0.014145185719299305238,0.02771964660504327993,2.7736838148941900251,0,0,0
2021-03-18-23-10-52,1615828986809048920,34.418289184571754902,-119.8500671386714771,-0.095870587892715755651,-0.039230122468223049825,0.0096929257488350649419,2.9088747990968202295,0,0,0
2021-03-18-23-10-53,1615828987808935274,34.418289184570319605,-119.85006713867188921,-0.10246038318114912558,0.028329644232181809549,0.034791533986034108017,3.0149032201008494347,0,0,0
2021-03-18-23-10-54,1615828988808972826,34.418289184570213024,-119.85006713867176131,-0.087944687323537093504,0.029398661131161726856,-0.0099168811720600786447,3.13956721521037041,0,0,0
2021-03-18-23-10-55,1615828989808942981,34.418289184570305395,-119.85005950927734375,-0.10271017221499773031,-0.03004683303265730937,0.0059027389271837033338,-3.0310956428781552496,0,0,0
2021-03-18-23-10-56,1615828990809030481,34.418289184570305395,-119.85005950927734375,-0.10184714462927470235,0.014170727693136495398,-0.021263011114548650143,-2.8946839445632157606,0,0,0
2021-03-18-23-10-57,1615828991808927408,34.418285369873046875,-119.8500518798828125,-0.1112671979781890419,0.015672750782643577599,0.014047250388228378973,-2.7822256744558231389,0,0,0
2021-03-18-23-10-58,1615828992808937407,34.418285369873117929,-119.8500518798826846,-0.11024887813528019831,-0.050923724236963403833,0.014407917250580987503,-2.6625906186812882126,0,0,0
2021-03-18-23-10-59,1615828993808892042,34.418285369870638135,-119.85005187988161879,-0.10978872479762637193,-0.041061943977407963646,0.035787286869845100212,-2.5742734275318048809,0,0,0
2021-03-18-23-11-00,1615828994809002563,34.418285369873046875,-119.85004425048829546,-0.11486178221610933436,-0.10784067785104983761,-0.00048877760235984930946,-2.5193962166153669457,0,0,0
2021-03-18-23-11-01,1615828995809004021,34.41828536987313214,-119.85004425048842336,-0.10876101177729359526,-0.096589864977369932486,0.029512054487970069971,-2.4756232147975651969,0,0,0
2021-03-18-23-11-02,1615828996809008604,34.418285369872720025,-119.85004425048816756,-0.10725582019763905961,-0.020498785725491224657,0.02090735742993335422,-2.3646800442386934904,0,0,0
2021-03-18-23-11-03,1615828997808976833,34.418285369872307911,-119.85004425048829546,-0.11080497437383401982,0.0094165814836043339187,0.011614247239860431282,-2.3013833342956560024,0,0,0
2021-03-18-23-11-04,1615828998809057041,34.418285369873046875,-119.85004425048829546,-0.11106374405075540579,0.069134510298723278465,0.010598697091805480558,-2.2028356527217876071,0,0,0
2021-03-18-23-11-05,1615828999808942613,34.418285369873046875,-119.85004425048829546,-0.11222308014755806582,0.057899794556941885926,-0.01048981174817118292,-2.100266344002453156,0,0,0
2021-03-18-23-11-06,1615829000809022665,34.41828536987305398,-119.85003662109375,-0.11191631894640227673,0.00065388198226934391658,0.011776616328300354083,-2.0479488396092970781,0,0,0
2021-03-18-23-11-07,1615829001808905737,34.41828536987305398,-119.85003662109375,-0.11980674873268315483,0.051419801029945658155,0.0086546859968526009682,-1.9865654532477861061,0,0,0
2021-03-18-23-11-08,1615829002808997143,34.418285369873046875,-119.85004425048829546,-0.11978049435214202512,0.028892595461644715593,0.003327639980811572442,-1.8899295342301776213,0,0,0
2021-03-18-23-11-09,1615829003809104382,34.418285369872577917,-119.85004425048727228,-0.12217129181209757105,0.021793664376965594942,0.0042743232462449567283,-1.7119823285679240943,0,0,0
2021-03-18-23-11-10,1615829004809083653,34.418285369873387936,-119.85004425048845178,-0.11712747352186331229,0.052933410623838432485,0.014028973248057711662,-1.450409252708305452,0,0,0
2021-03-18-23-11-11,1615829005809974121,34.418285369873046875,-119.85004425048829546,-0.11951209397513093413,-0.025931370831571459723,0.00075839474407841901346,-1.2417808743123122106,0,0,0
2021-03-18-23-11-12,1615829006808906933,34.418285369874112689,-119.85004425048816756,-0.11285610175601305805,-0.0792400453804939231,0.013477414714132813708,-1.0285803170290048758,0,0,0
2021-03-18-23-11-13,1615829007808929798,34.418289184570305395,-119.85003662109375,-0.11564566369279838387,-0.024305842189438753992,0.01550340968689759881,-0.9058233546231386768,0,0,0
2021-03-18-23-11-14,1615829008809014537,34.418289184570305395,-119.85003662109375,-0.11668469013665709599,0.023157781442329761906,0.0061803935077884659607,-0.72725544318042267822,0,0,0
2021-03-18-23-11-15,1615829009808913391,34.418289184569104577,-119.85003662109481581,-0.12843464189002049003,0.1304130212879097972,0.016741877388794141474,-0.4654560564521961763,0,0,0
2021-03-18-23-11-16,1615829010809018703,34.418289184570305395,-119.85003662109375,-0.10475391785092180719,0.17405324363654317565,0.072626945550096647097,-0.22608753056031330453,0,0,0
2021-03-18-23-11-17,1615829011808939744,34.418289184570305395,-119.85003662109375,-0.12230665672907489738,0.20536242532806814332,-0.012268333866117824352