Time (UTC),ROS Epoch,Latitude,Longitude,Depth,Roll,Pitch,Yaw
2021-03-18-22-20-36,1615828800261098319,0,0,0,0,0,0,0,0,0
2021-03-18-22-20-37,1615828801259079256,34.418174743651974268,-119.85011291503961672,-0.25693667238761375149,-0.0037867898277964208605,0.038946259956126501323,1.1467212767005297014,0,0,0
2021-03-18-22-20-38,1615828802259087016,34.418174743652123482,-119.85011291503785458,-0.25079771345145390748,-0.019023587164912741237,0.039207945388165257872,1.1086972948682407569,0,0,0
2021-03-18-22-20-39,1615828803259142849,34.418178558349708851,-119.85011291503904829,-0.24779706136043905262,0.011636149890401643187,0.04772175714767246113,1.0953232423334422485,0,0,0
2021-03-18-22-20-40,1615828804259043630,34.41817855834961648,-119.85011291503913355,-0.24299679920029293445,0.011877397103639714473,0.0513212528877785637,1.0620257383463727052,0,0,0
2021-03-18-22-20-41,1615828805259044098,34.418178558349588059,-119.85011291503890618,-0.24170497995525019874,-0.017498029745639770427,0.045353126090045318974,1.0356977321811207116,0,0,0
2021-03-18-22-20-42,1615828806259019306,34.41817855834969464,-119.85011291503910513,-0.23639057489474948892,-0.01704656190573549876,0.042532418772970322085,1.0110506168051549558,0,0,0
2021-03-18-22-20-43,1615828807259054098,34.418178558349715956,-119.85011291503910513,-0.23412216035739102926,0.00022971667146960979386,0.052551418203893314474,0.99805716146717948778,0,0,0
2021-03-18-22-20-44,1615828808258987378,34.418182373046676048,-119.85011291503948883,-0.23328408965777239215,0.0044178676636213026763,0.052162008692086460349,0.98244946374922137444,0,0,0
2021-03-18-22-20-45,1615828809258997222,34.41818237304679684,-119.85011291503884934,-0.22411889117098740543,0.0073437228617894197841,0.052386828920192307635,0.96610906409156571684,0,0,0
2021-03-18-22-20-46,1615828810259028211,34.418182373046732891,-119.85011291503948883,-0.21911379870883382348,-0.014896219830601978296,0.040124998207574098796,0.95006044830922165012,0,0,0
2021-03-18-22-20-47,1615828811259000606,34.418182373046889211,-119.85011291503916198,-0.21858802903322177569,-0.013812083881055549003,0.040017647624182479948,0.93735077677858003042,0,0,0
2021-03-18-22-20-48,1615828812258983627,34.418182373046739997,-119.85011291503916198,-0.21633227373453742248,-0.014014839985829970898,0.037084863407277457448,0.92541462532918250528,0,0,0
2021-03-18-22-20-49,1615828813259032949,34.418182373047145006,-119.85011291503897723,-0.21592821222655192437,0.0034251135049878558142,0.051941290849728628809,0.9257665212313300751,0,0,0
2021-03-18-22-20-50,1615828814259033522,34.418182373046562361,-119.85011291503872144,-0.21170726510781839869,0.0019807715794367642889,0.048463885951344425063,0.92921469751346663646,0,0,0
2021-03-18-22-20-51,1615828815258994303,34.418182373047010003,-119.85011291503872144,-0.21327931247769266188,0.0030233116527806974325,0.048959307181157832312,0.94965773753611848473,0,0,0
2021-03-18-22-20-52,1615828816259069563,34.418182373046761313,-119.85011291503933251,-0.21109063977849804039,-0.021055445898643158908,0.032290634585083445585,0.99538658459753381891,0,0,0
2021-03-18-22-20-53,1615828817258948313,34.418182373046867895,-119.85011291503927566,-0.20742604572340891944,0.0015125808314982163317,0.047075724955609424272,1.0618903236035408533,0,0,0
2021-03-18-22-20-54,1615828818259016645,34.418182373046782629,-119.85011291503852249,-0.20968644454963189516,0.010815923122731588638,0.045175145200313779337,1.1377771199327315621,0,0,0
2021-03-18-22-20-55,1615828819259026958,34.418182373046697364,-119.85011291503917619,-0.20044235431318085938,0.017769299217769707333,0.045420542651554020319,1.231271630665854655,0,0,0
2021-03-18-22-20-56,1615828820259028207,34.418182373047010003,-119.85011291503938935,-0.2057136476685058335,-0.0040336448465558292012,0.045908472057047886028,1.3368687674227504036,0,0,0
2021-03-18-22-20-57,1615828821260328415,34.418182373046853684,-119.85011291503903408,-0.20578498765339284238,0.025404465756805584553,0.039545181052875591488,1.4567640096746565792,0,0,0
2021-03-18-22-20-58,1615828822259039665,34.418182373046718681,-119.85011291503887776,-0.20381669270747787559,0.0066474732698017964527,0.042921238508882603169,1.5950645673827932303,0,0,0
2021-03-18-22-20-59,1615828823259056435,34.418186187744204574,-119.85011291503974462,-0.19470267694715992501,0.032394016504997479033,0.028678440903935380896,1.7490165631668779245,0,0,0
2021-03-18-22-21-00,1615828824258979924,34.418182373046931843,-119.85011291503920461,-0.19687075667956629998,0.0037564674109985662226,0.037912532655229348733,1.9036844006964439568,0,0,0
2021-03-18-22-21-01,1615828825259040601,34.418182373047073952,-119.85011291503900566,-0.20066839645367845479,-0.0036221695497411572802,0.039890533718921442063,2.0513123146217839832,0,0,0
2021-03-18-22-21-02,1615828826259121226,34.418182373046818157,-119.85010528564458809,-0.19728561115651643831,-0.0072160237738149038758,0.04295496332024582864,2.1570935712668024564,0,0,0
2021-03-18-22-21-03,1615828827258969767,34.418182373046839473,-119.85010528564443177,-0.19718071090085834141,-0.011061715953844124954,0.047897162454170305601,2.2338647229222563517,0,0,0
2021-03-18-22-21-04,1615828828258991381,34.418182373047010003,-119.85010528564508547,-0.19845700803631277642,-0.013803245033153147339,0.050469796572748165664,2.2777211030560016169,0,0,0
2021-03-18-22-21-05,1615828829258991433,34.418182373046903422,-119.85010528564465915,-0.19244531688803315217,0.0028465435886039095262,0.032437913155420092237,2.2915421498211836493,0,0,0
2021-03-18-22-21-06,1615828830258955703,34.418182373046875,-119.85011291503904829,-0.19432112567090192856,-0.015254005521608051191,0.048592956082085664304,2.2821992758950053748,0,0,0
2021-03-18-22-21-07,1615828831259089609,34.418186187744140625,-119.85011291503904829,-0.19521900651951978878,-0.017548150574147755587,0.047797208760276585493,2.2699306010630047048,0,0,0
2021-03-18-22-21-08,1615828832259008411,34.418186187744083782,-119.85011291503974462,-0.1925205120429113459,-0.0088051547504366545899,0.049145299691660815355,2.2466318386417434283,0,0,0
2021-03-18-22-21-09,1615828833258974608,34.41818618774413352,-119.85011291503920461,-0.18985255457592814521,0.006501661450854747358,0.036936735373969901974,2.2317695927269527445,0,0,0
2021-03-18-22-21-10,1615828834259197994,34.41818618774439642,-119.85011291504190467,-0.19857164659472004153,0.0040465714954215428745,0.035214928538927124657,2.2148411054231180728,0,0,0
2021-03-18-22-21-11,1615828835258957889,34.41818618774413352,-119.85011291503813879,-0.19383207309185998546,0.0057894521648697173238,0.033640513120692751292,2.1959854111187087078,0,0,0
2021-03-18-22-21-12,1615828836259075024,34.418186187744190363,-119.85011291503879249,-0.18968609599168198554,-0.0092623069353303388862,0.050419150840561199889,2.1735547078689414491,0,0,0
2021-03-18-22-21-13,1615828837259050388,34.418186187744083782,-119.85011291503933251,-0.18958752908566178785,-0.019496530452057164035,0.048524529291671530951,2.1610419257375292901,0,0,0
2021-03-18-22-21-14,1615828838259043617,34.418186187743856408,-119.85011291503887776,-0.18806861578362210619,-0.021660762192673922027,0.048086984624147142975,2.143771146783676862,0,0,0
2021-03-18-22-21-15,1615828839258970127,34.41818618774438221,-119.85011291503823827,-0.1905352868087502316,-0.00029197078604596937408,0.035423852409006605091,2.1305674234481926099,0,0,0
2021-03-18-22-21-16,1615828840259125439,34.418186187744197468,-119.85011291503874986,-0.18903210520484678425,0.0094520277266782696396,0.038328224023802925924,2.1116796141120928176,0,0,0
2021-03-18-22-21-17,1615828841259079189,34.418186187744140625,-119.85012054443360796,-0.19000056101841544809,-0.016891175141675197208,0.050715868683159262553,2.0994404778054174265,0,0,0
2021-03-18-22-21-18,1615828842259708251,34.418186187744097992,-119.85012054443380691,-0.19002327619940648229,-0.017027442265452094605,0.051640635210859479887,2.088026976169023996,0,0,0
2021-03-18-22-21-19,1615828843259300282,34.41818618774414773,-119.85012054443360796,-0.1882493021560104618,-0.023535319381291552876,0.052018322330560542999,2.0745176155925659778,0,0,0
2021-03-18-22-21-20,1615828844259223146,34.41818618774413352,-119.85012054443360796,-0.18926476168448591597,0.0034896975286296269894,0.039367115909945321617,2.0694103036865829637,0,0,0
2021-03-18-22-21-21,1615828845259090229,34.418186187744069571,-119.85012054443342322,-0.18764837118410651606,0.0049706990301517312361,0.039534938053577883821,2.0586297927300911681,0,0,0
2021-03-18-22-21-22,1615828846259476426,34.41818618774430405,-119.85012054443441798,-0.1935002342031263145,-0.0060178334471648955994,0.039307283878052601267,2.0452464960662943838,0,0,0
2021-03-18-22-21-23,1615828847259056739,34.418186187744090887,-119.85012054443397744,-0.18568947777436450863,-0.024493084473844080329,0.051504480772502463093,2.0260092102717903728,0,0,0
2021-03-18-22-21-24,1615828848258997572,34.418186187744154836,-119.85012054443213003,-0.19033173559070473702,-0.01766990851166082982,0.054224892797026934266,2.0178029872005054379,0,0,0
2021-03-18-22-21-25,1615828849258963509,34.41818618774413352,-119.85012054443360796,-0.18395860422878210216,-0.027719894391964337854,0.053156823826390406373,2.0049533838965918342,0,0,0
2021-03-18-22-21-26,1615828850259077206,34.41818618774413352,-119.85012054443360796,-0.18910165779470844427,-0.0057709351797700916484,0.040722316939602896946,1.9971396786475748009,0,0,0
2021-03-18-22-21-27,1615828851259037727,34.418190002441562569,-119.85012054443342322,-0.18603910415660318556,0.0021782366826673294109,0.041196355407109294666,1.9836076512996503318,0,0,0
2021-03-18-22-21-28,1615828852258992257,34.418190002441221509,-119.85012054443397744,-0.18488184198433271765,-0.0039647087225347247066,0.04321291335421902774,1.9769806030487651061,0,0,0
2021-03-18-22-21-29,1615828853259080382,34.41819000244182547,-119.85011291503852249,-0.19037742483967598495,-0.031650979221198659308,0.049080327455400314662,1.9546832807557905642,0,0,0
2021-03-18-22-21-30,1615828854259632725,34.418190002441335196,-119.85011291503894881,-0.18926847424312831514,-0.019376754321733052899,0.050760092559170022497,1.9387301068368449908,0,0,0
2021-03-18-22-21-31,1615828855259001058,34.418193817138764246,-119.85011291503892039,-0.19157249699344755522,-0.025170877484452215678,0.049671909467712785369,1.9277876064722165861,0,0,0
2021-03-18-22-21-32,1615828856259024443,34.418193817138750035,-119.85012054443396323,-0.19017802330335589756,-0.00465898113567658409,0.041416722113911515202,1.9264236795570173211,0,0,0
2021-03-18-22-21-33,1615828857258996579,34.418193817138657664,-119.85011291503900566,-0.19206477515275885426,-0.006243776502646762247,0.042878352718261486531,1.9159653624558066198,0,0,0
2021-03-18-22-21-34,1615828858258962464,34.418190002441590991,-119.85011291503940356,-0.18872997802748042728,0.00051657096834711207275,0.042900721644555890599,1.9055690735443098216,0,0,0
2021-03-18-22-21-35,1615828859259086057,34.418190002441392039,-119.85011291503913355,-0.19460872112575869353,-0.025461870066096126131,0.037422296163110643774,1.891128186995885363,0,0,0
2021-03-18-22-21-36,1615828860259104234,34.418190002441384934,-119.85011291503829511,-0.18559476416668155285,-0.031349511114589737049,0.050765694402445694922,1.8832318309336066875,0,0,0
2021-03-18-22-21-37,1615828861258908869,34.418190002441178876,-119.85011291503892039,-0.18839419220290373747,-0.025550249733163544336,0.051565350009751827198,1.862451462783233147,0,0,0
2021-03-18-22-21-38,1615828862259059233,34.418190002441313879,-119.85011291503988673,-0.1866596387829212722,0.0001394450068362991361,0.043584262406309234872,1.8580576991566026823,0,0,0
2021-03-18-22-21-39,1615828863259102566,34.418190002441221509,-119.85011291503927566,-0.18919028158130946071,-0.0044646419575815566791,0.044538076990338446026,1.8434763623790746401,0,0,0
2021-03-18-22-21-40,1615828864259346368,34.418190002441470199,-119.85011291503913355,-0.18885819076280763174,-0.02978057790301368371,0.048331714831161103063,1.8278076886796046363,0,0,0
2021-03-18-22-21-41,1615828865259017148,34.418190002441399145,-119.85011291503913355,-0.19179876888979383032,-0.029298015175853515946,0.048031955363926126523,1.8052476982075136291,0,0,0
2021-03-18-22-21-42,1615828866259051263,34.418190002441399145,-119.85011291503907671,-0.18902011863226195199,-0.0291186119561712628,0.050660128895499582924,1.792410316482736965,0,0,0
2021-03-18-22-21-43,1615828867259062512,34.418190002440255171,-119.85011291503874986,-0.18845346757198064291,-0.0036920113309899704919,0.041281158099300496733,1.7928171343164156504,0,0,0
2021-03-18-22-21-44,1615828868259067460,34.418190002441498621,-119.85011291503872144,-0.18899999567758052343,-0.0043693886492329331306,0.044136998559352540183,1.7781786475817946691,0,0,0
2021-03-18-22-21-45,1615828869259076678,34.418190002441363617,-119.85011291503923303,-0.18833451841854803588,-0.00063858084512452713798,0.044510627794388767098,1.7665194099840673125,0,0,0
2021-03-18-22-21-46,1615828870259017303,34.418190002441441777,-119.85011291503900566,-0.18882820781846618163,-0.02833457666250533552,0.045661236014750812562,1.7467154239751789824,0,0,0
2021-03-18-22-21-47,1615828871259002615,34.418190002441420461,-119.85011291503894881,-0.1923381023097925635,-0.025794235192409878388,0.048152044027597630527,1.7438258412050875457,0,0,0
2021-03-18-22-21-48,1615828872259011885,34.418190002441200193,-119.85011291503948883,-0.18837239812708192477,-0.02765177507371235216,0.043197133155128117354,1.7248641678503715546,0,0,0
2021-03-18-22-21-49,1615828873259004124,34.418190002441377828,-119.85011291503907671,-0.19033034998999268095,-0.0056542031592008278745,0.043762073884004583368,1.7251985550829558314,0,0,0
2021-03-18-22-21-50,1615828874258982249,34.418190002441455988,-119.85011291503916198,-0.19419066703989010247,-0.0039905399873813428985,0.041656531893819244428,1.718121138733899711,0,0,0
2021-03-18-22-21-51,1615828875259001259,34.418190002441399145,-119.85011291503948883,-0.19007564678637259292,-0.0026832041962212256972,0.044435992375386069997,1.7049274043063218365,0,0,0
2021-03-18-22-21-52,1615828876258998811,34.418190002441420461,-119.85011291503892039,-0.19284538950721991091,-0.027984335758509750608,0.049210632853526156683,1.6842050975116711342,0,0,0
2021-03-18-22-21-53,1615828877259117977,34.418190002441399145,-119.85011291503904829,-0.18965248687970720498,-0.0065828281708000604966,0.044504638589583069008,1.6816663194523868707,0,0,0
2021-03-18-22-21-54,1615828878259056570,34.418190002441413355,-119.85011291503991515,-0.19490033433354167491,-0.0044433670314783669381,0.044203707948575497733,1.6731905679286822597,0,0,0
2021-03-18-22-21-55,1615828879259116935,34.418190002441470199,-119.8501129150397162,-0.19394471679804003994,-0.024444961365868340258,0.047969917354754462724,1.6589950675610032338,0,0,0
2021-03-18-22-21-56,1615828880259253445,34.418190002441498621,-119.85011291503965936,-0.18849275181196686879,-0.028927339875393323632,0.050983721425474019806,1.6535430968141329178,0,0,0
2021-03-18-22-21-57,1615828881259054017,34.41819000244140625,-119.85012054443355112,-0.19425094980704199488,-0.027660579405196002861,0.044177710316132517976,1.6439914999574458676,0,0,0
2021-03-18-22-21-58,1615828882259216256,34.418190002441413355,-119.85012054443370744,-0.19602135586453470206,-0.00087715789826095210205,0.042303501176387682536,1.6407422917676424134,0,0,0
2021-03-18-22-21-59,1615828883258990006,34.418190002441313879,-119.85012054443357954,-0.19138988870560738609,-0.0046430919270809495672,0.043885893282685571604,1.632095594812925432,0,0,0
2021-03-18-22-22-00,1615828884259118339,34.418190002441491515,-119.85012054443365059,-0.19589817612838023031,-0.029011314277508172543,0.03815199400155216275,1.6206746076845948146,0,0,0
2021-03-18-22-22-01,1615828885259010839,34.418190002441264141,-119.85012054443296847,-0.19339480102361836233,-0.027049348443024964772,0.040912943838687577947,1.6125655039081128184,0,0,0
2021-03-18-22-22-02,1615828886259245890,34.418190002441413355,-119.85012054443360796,-0.19516569129895297574,-0.0036979154098083660308,0.041470458783189473317,1.6098277033447376816,0,0,0
2021-03-18-22-22-03,1615828887259192713,34.418190002440994135,-119.85012054443464535,-0.19157932160927892973,-0.0075746669901405726949,0.046818881627904290754,1.596731441136415075,0,0,0
2021-03-18-22-22-04,1615828888259025369,34.418193817138629242,-119.85012817382794026,-0.19491586217650908042,-0.026817965033485106213,0.048835361413384716089,1.5871176678930662973,0,0,0
2021-03-18-22-22-05,1615828889258989795,34.418193817138536872,-119.85012817382794026,-0.19161029661619086162,-0.0044253084983473887221,0.0399538109727830687,1.5866079523773428672,0,0,0
2021-03-18-22-22-06,1615828890259071566,34.418193817138707402,-119.85012817382815342,-0.18926442981986354996,-0.031712643208267075889,0.044459078031699399147,1.5703558755946014358,0,0,0
2021-03-18-22-22-07,1615828891258992399,34.418193817138529766,-119.85012817382779815,-0.19211419699264672967,-0.027350153602522200846,0.042805698890027610304,1.5611485993772928893,0,0,0
2021-03-18-22-22-08,1615828892259015836,34.418197631835973027,-119.850128173828125,-0.19711256798307974503,-0.026556766166723422273,0.03947823491033293497,1.5584271659876447469,0,0,0
2021-03-18-22-22-09,1615828893259008127,34.418197631836065398,-119.85012817382845185,-0.19412682118880775217,-0.0075466038088179638113,0.04595176272778591503,1.5548603160489866681,0,0,0
2021-03-18-22-22-10,1615828894258992450,34.418197631835965922,-119.85012817382819605,-0.19994979102886498157,-0.031669661574537530391,0.040750822630004436553,1.5396882444143125124,0,0,0
2021-03-18-22-22-11,1615828895258962502,34.41819763183601566,-119.85012817382855133,-0.19456492783318649065,-0.0012725504909627111377,0.041793169689243486742,1.5443564820567077245,0,0,0
2021-03-18-22-22-12,1615828896259018959,34.418197631836207506,-119.85012817382725814,-0.19596842907904107878,-0.028657080991269970327,0.04546382257106511976,1.5400377920492114292,0,0,0
2021-03-18-22-22-13,1615828897259606980,34.418197631836058292,-119.85012817382853711,-0.19735926334195946774,-0.033290707994398233138,0.045188285072150904953,1.5282771058384798657,0,0,0
2021-03-18-22-22-14,1615828898259026719,34.418193817138671875,-119.8501281738282529,-0.19778723979225373841,-0.026872818033297891926,0.042613926743012321696,1.5219362231563773324,0,0,0
2021-03-18-22-22-15,1615828899259107552,34.418193817138643453,-119.85012817382815342,-0.19303606397745901035,-0.024369768153394456844,0.036643779026017390954,1.5182391367040277697,0,0,0
2021-03-18-22-22-16,1615828900259242604,34.418193817138778456,-119.85012817382880712,-0.19935733283712489539,-0.008550228922459894923,0.041676600914068460957,1.5228612579689189133,0,0,0
2021-03-18-22-22-17,1615828901259531718,34.418193817138707402,-119.85012817382828132,-0.19748163385327752173,-0.0017175311598143919774,0.042820236805996635121,1.5163224272882460664,0,0,0
2021-03-18-22-22-18,1615828902258996666,34.418193817138735824,-119.85012817382805395,-0.19792160600982192098,-0.0065839088571429020894,0.041677306328069541053,1.5130282577511804387,0,0,0
2021-03-18-22-22-19,1615828903259024738,34.418190002441363617,-119.850128173828125,-0.19631155815545942023,-0.031416693604406534246,0.040822925395079888433,1.5095832202529910759,0,0,0
2021-03-18-22-22-20,1615828904259060467,34.418190002441384934,-119.8501281738279971,-0.19724429132005003029,-0.029107557210268086845,0.042306300710594955949,1.5029140771343540983,0,0,0
2021-03-18-22-22-21,1615828905259086456,34.418190002441463093,-119.85012054443367902,-0.1995543696635843911,-0.027856214612907451156,0.049874055951330181768,1.4992948312099028119,0,0,0
2021-03-18-22-22-22,1615828906258995883,34.418190002441278352,-119.85012054443410534,-0.1990422219920641167,-0.0039085318973025168221,0.039903875791905289716,1.5074103950049995149,0,0,0
2021-03-18-22-22-23,1615828907259676039,34.418190002441498621,-119.85012054443360796,-0.20092783949257522758,-0.0039532478288024051893,0.042659151591057570263,1.5019182290744359509,0,0,0
2021-03-18-22-22-24,1615828908258957236,34.418186187744183258,-119.85012054443355112,-0.19901193157956320601,-0.0022938088101731209101,0.043548123759751672379,1.5016417302191193972,0,0,0
2021-03-18-22-22-25,1615828909259051350,34.418186187744154836,-119.85012054443362217,-0.20105399352534986113,-0.027316788880535253919,0.038644392363550203462,1.4915793652686186732,0,0,0
2021-03-18-22-22-26,1615828910259045256,34.418186187744069571,-119.85012054443390639,-0.19354037477837776615,-0.033172367136623519268,0.044426011692893271898,1.4911715528730933311,0,0,0
2021-03-18-22-22-27,1615828911260389631,34.418186187744140625,-119.85011291503904829,-0.2784536754410877335,-0.091110921849622827917,-0.11638704964961207877,1.6725908157302846746,0,0,0
2021-03-18-22-22-28,1615828912258957495,34.418182373050171918,-119.85011291504065412,-0.29582885094021926786,-0.14372401100992543421,0.062886659197744124161,1.6169707660640777469,0,0,0
2021-03-18-22-22-29,1615828913259051505,34.418182373047429223,-119.85011291503961672,-0.28759059076064247273,0.11426097016223944747,0.63205218304731458634,1.0942645491925169221,0,0,0
2021-03-18-22-22-30,1615828914259162390,34.418178558354462382,-119.8501205444298563,-0.29947306426751535424,-0.0052835398079124603135,0.68246433884043933293,0.77829523450340254431,0,0,0
2021-03-18-22-22-31,1615828915258970463,34.418182373065015156,-119.85012054440416307,-0.30508659407911731254,0.16861204998792922449,-0.43353414479311425112,0.13674074215500370277,0,0,0
2021-03-18-22-22-32,1615828916259016608,34.418178558350824403,-119.85012817383002925,-0.30484295187051918541,0.013025185728436696267,-0.014134724534011940122,-1.3151495683274592174,0,0,0
2021-03-18-22-22-33,1615828917259987493,34.418174743653104031,-119.85012817382767025,-0.30039048422045394604,-0.034193057595982782881,-0.021244065133654080335,-3.0830680742152689611,0,0,0
2021-03-18-22-22-34,1615828918259058691,34.418174743650304492,-119.85013580322058147,-0.29975208044827822418,-0.013031514936629521456,0.019775588784003497733,2.606375844599284175,0,0,0
2021-03-18-22-22-35,1615828919259249055,34.418182373053262779,-119.85013580321725613,-0.29778556644504217132,-0.074630228246258187297,0.058152374415898419602,2.4095185512535035599,0,0,0
2021-03-18-22-22-36,1615828920261374679,34.41819381713866477,-119.85014343261720171,-0.30260155259061627397,-0.091029775975476123762,0.031858801356694936568,2.2999543247289513381,0,0,0
2021-03-18-22-22-37,1615828921259005929,34.418201446532151522,-119.85015869140489997,-0.30666376507816384134,0.063440083946658551439,0.052431986493817098194,2.0671000381208242125,0,0,0
2021-03-18-22-22-38,1615828922259613845,34.418216705322222992,-119.85016632080073862,-0.30421706870034603831,-0.0022174480648479628388,0.039569603691350700714,1.978622471575695263,0,0,0
2021-03-18-22-22-39,1615828923259262022,34.418231964110788113,-119.85016632080048282,-0.30311524904305331418,-0.08376914597077662894,0.08744705789455316236,1.7059668841039832277,0,0,0
2021-03-18-22-22-40,1615828924262422907,34.418243408203480271,-119.85016632080093757,-0.30223542001199887874,-0.055643898067609304237,0.087831938944421802939,1.8629162673251278282,0,0,0
2021-03-18-22-22-41,1615828925259072646,34.418258666991299322,-119.85015869141346911,-0.30117020047267134553,-0.045702183316838458638,0.085456203776767977742,1.8922188718122809892,0,0,0
2021-03-18-22-22-42,1615828926259017281,34.41826629638738666,-119.8501510620123014,-0.30351390900487912328,-0.063368655692378483835,0.10343378896169722059,1.6002974103583003096,0,0,0
2021-03-18-22-22-43,1615828927259012489,34.418270111084872553,-119.85015869140863742,-0.30778146938007866495,0.074612294364787098977,-0.020310665189490553773,1.5719736860912718601,0,0,0
2021-03-18-22-22-44,1615828928259088791,34.418266296382547864,-119.85015106200569335,-0.3080265921510987881,-0.017102391040060394012,0.0638929498471154933,1.5600195091776194456,0,0,0
2021-03-18-22-22-45,1615828929259043166,34.418266296391152537,-119.8501510619980337,-0.30908323218555833201,-0.13985072285116606494,-0.030733140998300319952,1.6332691055862393892,0,0,0
2021-03-18-22-22-46,1615828930259225821,34.418273925780496825,-119.85015106201093715,-0.30445502964943116364,-0.095006844100956278076,-0.10432095882349136373,2.9591182791276096076,0,0,0
2021-03-18-22-22-47,1615828931259048477,34.41828155517578125,-119.85015869140623579,-0.30189632971189866995,-0.051030804971686265226,-0.018032602242412487659,-1.9656956153213436256,0,0,0
2021-03-18-22-22-48,1615828932259020664,34.41828155517553256,-119.85016632080044019,-0.30509259866337767875,-0.052118428574931999209,0.0034441981497108230433,-1.5244888471087421067,0,0,0
2021-03-18-22-22-49,1615828933259039831,34.418281555175553876,-119.85016632080554189,-0.30326663722032104475,0.01582020428636199752,-0.0017487239361357032313,-1.5923306783104291817,0,0,0
2021-03-18-22-22-50,1615828934258962330,34.418281555175944675,-119.8501663207996728,-0.30360394428003673051,-0.058184114440136575075,0.005045143732987511162,-1.6853082169198612128,0,0,0
2021-03-18-22-22-51,1615828935259075559,34.41828155517578125,-119.85016632080083809,-0.30383206172342103191,-0.084412309911184327249,0.0013267394728730223796,-1.6942944240610517959,0,0,0
2021-03-18-22-22-52,1615828936259007746,34.418285369873032664,-119.85016632079957333,-0.30414850074532173707,-0.084514064234160718447,0.00020924694454625933121,-1.6972369179672388562,0,0,0
2021-03-18-22-22-53,1615828937258978996,34.418289184570298289,-119.85017395019514197,-0.30597577405384362992,-0.084451726383103664642,0.0019075328547392181831,-1.7010145885680842959,0,0,0
2021-03-18-22-22-54,1615828938259187641,34.418289184570333816,-119.85017395019538355,-0.30612831390818456834,-0.084404504975382793619,0.0042808185089993726347,-1.7007890850959666018,0,0,0
2021-03-18-22-22-55,1615828939259148422,34.418296813964886383,-119.8501663208007102,-0.30885905413677616771,-0.058877096980202374421,0.0050218995975547728317,-1.7036090281867621865,0,0,0
2021-03-18-22-22-56,1615828940259049411,34.418296813964836645,-119.85016632080066756,-0.30683790313542397277,-0.058285550131238463012,0.0036173758608091760407,-1.7035332257096675868,0,0,0
2021-03-18-22-22-57,1615828941259000296,34.418300628662123586,-119.85017395019526987,-0.30712323062103957794,-0.058198160836150855668,0.0045069015786078948926,-1.7028474527524390947,0,0,0
2021-03-18-22-22-58,1615828942259489150,34.418300628662109375,-119.85017395019536934,-0.30484413414089556182,-0.082973578856211108179,0.0005749513876110695209,-1.7012556694199922891,0,0,0
2021-03-18-22-22-59,1615828943259095452,34.418300628662095164,-119.85016632080063914,-0.30894993222835859248,-0.057998275720859839011,0.004458694228025091022,-1.7041530427428841499,0,0,0
2021-03-18-22-23-00,1615828944258998629,34.418300628662095164,-119.85016632080093757,-0.3043676962550692644,-0.057412586279525487654,0.0048577046524001625538,-1.7036057858094859618,0,0,0
2021-03-18-22-23-01,1615828945259029670,34.418300628662109375,-119.85017395019467301,-0.31061153678359620933,-0.056694312177982805756,0.0051606016476236559951,-1.7030258689615045409,0,0,0
2021-03-18-22-23-02,1615828946259121753,34.418300628662152008,-119.85017395019492881,-0.30345869128451125052,-0.081826115192514592422,0.0015352946019752573836,-1.7008443524022707205,0,0,0
2021-03-18-22-23-03,1615828947258990346,34.418300628662109375,-119.85017395019514197,-0.31104990599516552097,-0.081521584278887893049,0.0038783404818686301532,-1.7008242857660063052,0,0,0
2021-03-18-22-23-04,1615828948259062898,34.41830062866210227,-119.85016632080089494,-0.30872230897011682105,-0.081693098926840859719,0.0027391513150337282699,-1.7012733418988907896,0,0,0
2021-03-18-22-23-05,1615828949259046491,34.41830062866211648,-119.85016632080093757,-0.30983156195217254059,-0.056860553487263022776,0.0067873610707999409986,-1.7041367270314589089,0,0,0
2021-03-18-22-23-06,1615828950258992689,34.418300628662080953,-119.85016632079982912,-0.31245544966889110539,-0.056989886291648916838,0.0054926108167398695128,-1.7046115088104065727,0,0,0
2021-03-18-22-23-07,1615828951259183053,34.418300628662095164,-119.85016632080119336,-0.31067273949831991642,-0.055782876191455721404,0.0047900173190283303754,-1.7037668023095866587,0,0,0
2021-03-18-22-23-08,1615828952258987011,34.41830062866211648,-119.85016632080076704,-0.31236196094921803157,-0.080695996008174938896,0.0021508127749843585809,-1.7004621232283736454,0,0,0
2021-03-18-22-23-09,1615828953259054927,34.41830062866219464,-119.85016632080112231,-0.30884164984545775523,-0.055933553067673350001,0.0045511544613145837185,-1.7026988930332151995,0,0,0
2021-03-18-22-23-10,1615828954259213937,34.418300628662123586,-119.85016632080119336,-0.30944537257134585584,-0.056623030862885524728,0.0054997828439161972752,-1.7028794801250193292,0,0,0
2021-03-18-22-23-11,1615828955258998729,34.418300628662109375,-119.85017395019538355,-0.31198404467761642334,-0.056702949353916114184,0.004928792613802996693,-1.7031861595308621649,0,0,0
2021-03-18-22-23-12,1615828956259003520,34.41830062866210227,-119.85017395019526987,-0.31112596832804428892,-0.081888057467253014265,0.0031494046024207731672,-1.7011407605553281464,0,0,0
2021-03-18-22-23-13,1615828957258977009,34.418296813964865066,-119.85017395019549724,-0.31362222869406414238,-0.056693216874133624261,0.0050080992835361531207,-1.7048829294410925428,0,0,0
2021-03-18-22-23-14,1615828958258953363,34.418296813964708747,-119.85017395019340825,-0.31633017872104673973,-0.082499402565036336621,0.002800270582791950652,-1.7008979563956496683,0,0,0
2021-03-18-22-23-15,1615828959258997477,34.418296813964907699,-119.85017395019492881,-0.31085460156175093172,-0.057583542016208230652,0.00586486769304660812,-1.7033829394584727446,0,0,0
2021-03-18-22-23-16,1615828960259049404,34.418296813964829539,-119.85017395019515618,-0.31565848778758742732,-0.057956912194424760332,0.0073959874210118717666,-1.7022426167356634608,0,0,0
2021-03-18-22-23-17,1615828961258993726,34.418296813964794012,-119.8501663208004544,-0.31838769312167253256,-0.058018515663643563385,0.0056885190891296311469,-1.7042650362445106449,0,0,0
2021-03-18-22-23-18,1615828962259031538,34.41829299926757102,-119.85016632080089494,-0.31226027068189921021,-0.083142729523120836865,0.0028788556826363814918,-1.7015785158820184719,0,0,0
2021-03-18-22-23-19,1615828963259291746,34.418292999267606547,-119.85016632080079546,-0.30933775529029894358,-0.08322613558461022798,0.0049187335772536448439,-1.7012750977382953277,0,0,0
2021-03-18-22-23-20,1615828964259006590,34.418292999267514176,-119.85016632080066756,-0.31914292875065469746,-0.083292584433331456895,0.0020677130080113625098,-1.7013680049899415625,0,0,0
2021-03-18-22-23-21,1615828965258971641,34.418289184570319605,-119.85016632080079546,-0.31534708616989010066,-0.058671660682234005879,0.0045206094348582302397,-1.7042668936323714934,0,0,0
2021-03-18-22-23-22,1615828966258975860,34.418289184570298289,-119.85016632080089494,-0.31390727256862099859,-0.05884533457805745521,0.0053473032870609768508,-1.7045931027962293314,0,0,0
2021-03-18-22-23-23,1615828967259067057,34.418289184570369343,-119.85016632080053967,-0.30958095201458357693,-0.058997950609305467584,0.0053392181117403285373,-1.703835845108078173,0,0,0
2021-03-18-22-23-24,1615828968259006953,34.418285369873075297,-119.85016632080275656,-0.31180960008451147347,-0.084372010191021112879,0.0027237551739362295816,-1.7011949282881626555,0,0,0
2021-03-18-22-23-25,1615828969259076171,34.41828536987303977,-119.85015869140619316,-0.31280090284490841279,-0.059049429813427888047,0.0059223194829857144644,-1.7032497135656665677,0,0,0
2021-03-18-22-23-26,1615828970259011327,34.418289184570319605,-119.85015869140629263,-0.3185717449492173059,-0.059215314111730692204,0.0041276381494300302955,-1.7039650605288751972,0,0,0
2021-03-18-22-23-27,1615828971259039295,34.418289184570319605,-119.85015869140623579,-0.31410859580237010524,-0.058932464124775117698,0.0049832192525913806408,-1.704226835164867504,0,0,0
2021-03-18-22-23-28,1615828972259053983,34.418289184570319605,-119.8501510620117898,-0.31262977942481706695,-0.084655854624934662178,0.0044894276768046139162,-1.7019954211676160405,0,0,0
2021-03-18-22-23-29,1615828973259041795,34.418289184570298289,-119.85015106201169033,-0.31485396024729783715,-0.084201134503925370578,0.0021285332839244375074,-1.7023731763620473245,0,0,0
2021-03-18-22-23-30,1615828974259013669,34.418289184570319605,-119.85015106201159085,-0.31301309886064554444,-0.084438547502519709087,0.0022204929828843669032,-1.7025665423833655776,0,0,0
2021-03-18-22-23-31,1615828975259000440,34.418289184570298289,-119.85015106201146295,-0.31916196405966723582,-0.059828449034413221097,0.0065737420262702312562,-1.7054230607794986785,0,0,0
2021-03-18-22-23-32,1615828976259022523,34.418289184570305395,-119.85015106201169033,-0.31578624950013911565,-0.059856704358576019731,0.0051432873530910978854,-1.7043754201948686511,0,0,0
2021-03-18-22-23-33,1615828977258963408,34.418285369873025559,-119.85015106201187507,-0.31648728505622780727,-0.059538890704067974624,0.0059806048672284145562,-1.7033273098958943148,0,0,0
2021-03-18-22-23-34,1615828978258989137,34.418285369873046875,-119.85015106201169033,-0.31937412834487488578,-0.084577170480867672198,0.00093078627931602209589,-1.7023387142247112802,0,0,0
2021-03-18-22-23-35,1615828979258993094,34.41828536987303977,-119.85015106201161927,-0.31567788006658298317,-0.085194791275726336477,0.0027293211265562145572,-1.7018967143873782177,0,0,0
2021-03-18-22-23-36,1615828980258955750,34.418285369873046875,-119.85015106201159085,-0.31989437376177637384,-0.084886638557453403253,0.0030895311988547763567,-1.7025041013682273849,0,0,0
2021-03-18-22-23-37,1615828981258951323,34.418285369873082402,-119.85015106201169033,-0.31357791867786510842,-0.059960456544268431189,0.005745908621385685186,-1.7041552324264970242,0,0,0
2021-03-18-22-23-38,1615828982259142364,34.41828536987305398,-119.85015106201159085,-0.31865785591981687919,-0.059480593037272717905,0.0061974216110238311908,-1.7033235737654026654,0,0,0
2021-03-18-22-23-39,1615828983259089708,34.418285369873068191,-119.85015106201306878,-0.31682326067351651577,-0.060096591865487609951,0.0056090462539066104908,-1.7050305386842234956,0,0,0
2021-03-18-22-23-40,1615828984259034343,34.41828536987303977,-119.85015869140616473,-0.31595992189377725134,-0.084815935837432188116,0.0032788501815988252072,-1.7026460561883229872,0,0,0
2021-03-18-22-23-41,1615828985259421113,34.418285369873061086,-119.85015869140616473,-0.31426688079058751057,-0.084872102275034208563,0.0034069030559004216327,-1.7017961016836917754,0,0,0
2021-03-18-22-23-42,1615828986259236165,34.418285369872968715,-119.85015869140761424,-0.32064815780204175555,-0.060186541039150685817,0.0043911542149314003458,-1.7054371187697934253,0,0,0
2021-03-18-22-23-43,1615828987259280591,34.418285369872997137,-119.85015869140552525,-0.32032188956559726201,-0.06017313495738222523,0.0054598389273574051209,-1.7057331546825378332,0,0,0
2021-03-18-22-23-44,1615828988259026789,34.418285369873032664,-119.85015869140667633,-0.32240033717869243102,-0.085117066427986304289,0.0016535690138945826656,-1.7016535705185857896,0,0,0
2021-03-18-22-23-45,1615828989259299705,34.41828536987303977,-119.85015869140622158,-0.32004126106930813611,-0.085667931504309596802,0.0020120876269915095695,-1.7037560303788288341,0,0,0
2021-03-18-22-23-46,1615828990258984028,34.418285369873061086,-119.85015869140697475,-0.32116871173287941943,-0.086129967919026093059,0.0032397122811668116818,-1.7028818512357624115,0,0,0
2021-03-18-22-23-47,1615828991259091423,34.418285369873082402,-119.85015869140647737,-0.32389435802111687934,-0.060863395375620951699,0.0057420075418483339236,-1.7054861717610370064,0,0,0
2021-03-18-22-23-48,1615828992259063767,34.418285369873075297,-119.85015869140636369,-0.3184845768728191695,-0.06065823470672113138,0.0051961703877579047336,-1.7047822156776222258,0,0,0
2021-03-18-22-23-49,1615828993259123558,34.41828536987303977,-119.85015869140606526,-0.31916789532986744593,-0.08563879059074026856,0.0019912599976689561269,-1.7025207108661608579,0,0,0
2021-03-18-22-23-50,1615828994259554651,34.418285369873046875,-119.85015869140609368,-0.31698319519115736309,-0.085942244653424246237,0.0035332846152269742172,-1.7030020791202016284,0,0,0
2021-03-18-22-23-51,1615828995258956213,34.418285369872968715,-119.85015869140600842,-0.31870420507607016836,-0.086128081162822417438,0.0020261638465888676813,-1.7021193287484477352,0,0,0
2021-03-18-22-23-52,1615828996258926630,34.418285369873011348,-119.85015869140674738,-0.32168915437622874753,-0.061513766631309439725,0.0047180512422069376816,-1.7056339565221749766,0,0,0
2021-03-18-22-23-53,1615828997259393869,34.418285369873068191,-119.85015869140613631,-0.31770718104069833876,-0.061318608256563163217,0.0052132552332415761989,-1.7063307326132219899,0,0,0
2021-03-18-22-23-54,1615828998258978452,34.418285369873075297,-119.85015869140619316,-0.3212276072830423379,-0.086410273581027916001,0.0021884791641694784775,-1.7021745919472199837,0,0,0
2021-03-18-22-23-55,1615828999258971108,34.418285369873032664,-119.85015869140596578,-0.32765310452036772171,-0.086073413012831986868,0.0033581600196439403451,-1.7023860910707147021,0,0,0
2021-03-18-22-23-56,1615829000259348711,34.418285369873061086,-119.85015106201171875,-0.32174110485962348349,-0.085230364912348727247,0.001925742685819390029,-1.7018658182539709856,0,0,0
2021-03-18-22-23-57,1615829001259043346,34.418285369873096613,-119.85015106201194612,-0.31954229063481787154,-0.060695327688776209984,0.0066402141124749271273,-1.7062651133668023107,0,0,0
2021-03-18-22-23-58,1615829002258973242,34.418285369873061086,-119.85015106201171875,-0.32281345027281704851,-0.061102595490620657814,0.0068747248953197398133,-1.7062681284864533726,0,0,0
2021-03-18-22-23-59,1615829003259117669,34.418285369873061086,-119.85015106201187507,-0.32073232631983139562,-0.060910855259589273547,0.0067627631439626384457,-1.7056260758734844707,0,0,0
2021-03-18-22-24-00,1615829004259022304,34.418285369873061086,-119.85015106201171875,-0.31902232645535183453,-0.085830530931372994718,0.0020114113710761509848,-1.7023362962570331991,0,0,0
2021-03-18-22-24-01,1615829005259012251,34.418285369873032664,-119.85015106201146295,-0.31997196742043465534,-0.06132240593659834399,0.0052722502431670282066,-1.7058685839880280977,0,0,0
2021-03-18-22-24-02,1615829006259174855,34.418285369872997137,-119.85015106201133506,-0.32220399756821455073,-0.061594453676761855287,0.0068135957141312476076,-1.7057551333536093985,0,0,0
2021-03-18-22-24-03,1615829007259170948,34.418285369872897661,-119.85015106201203139,-0.32206679173103253122,-0.061587682333932101952,0.0052287043130363275792,-1.7048604237672120298,0,0,0
2021-03-18-22-24-04,1615829008259053083,34.418285369873061086,-119.85015106201174717,-0.31880119279560975576,-0.061703531669253672276,0.0066503650240960134749,-1.7065302241280733142,0,0,0
2021-03-18-22-24-05,1615829009259078552,34.418289184570248551,-119.85015106201181823,-0.32602768322189157324,-0.086418666848169109485,0.0016930588228842619221,-1.7032566155924271367,0,0,0
2021-03-18-22-24-06,1615829010259141208,34.4182891845703125,-119.85015869140545419,-0.32210053496089419145,-0.086623073258043858935,0.0021717857105656300683,-1.7036731824749888897,0,0,0
2021-03-18-22-24-07,1615829011258972874,34.4182891845703125,-119.85015869140634948,-0.32248049317863353158,-0.061826551804891355379,0.0046487214917097846242,-1.7065833650557857837,0,0,0
2021-03-18-22-24-08,1615829012258985999,34.4182891845703125,-119.85015869140636369,-0.32257771522315709101,-0.06140441089170652067,0.0050799400695820439225,-1.7051546299116437932,0,0,0
2021-03-18-22-24-09,1615829013259063238,34.418289184570454609,-119.85016632080160548,-0.31765750381534774149,-0.086252500016059788224,0.0018937733274894117449,-1.7022226187112787787,0,0,0
2021-03-18-22-24-10,1615829014258986935,34.418289184570262762,-119.85016632080105126,-0.32220424094330729625,-0.086846210538289309033,0.0028986118471795684071,-1.7033638113120195268,0,0,0
2021-03-18-22-24-11,1615829015258980529,34.418289184570305395,-119.85016632080092336,-0.32125495201764570075,-0.087006525377206780925,0.001438443597341162181,-1.70246616226679226,0,0,0
2021-03-18-22-24-12,1615829016259030893,34.418289184570333816,-119.85016632080106547,-0.32313967966629469908,-0.086494528552977512081,0.001684471477369188985,-1.7026300314558890925,0,0,0
2021-03-18-22-24-13,1615829017258989486,34.418289184570319605,-119.85016632080079546,-0.32698570523341130567,-0.061791827890587763816,0.0050164169058818496721,-1.7054285179447921106,0,0,0
2021-03-18-22-24-14,1615829018259048028,34.418289184570305395,-119.85016632080080967,-0.32040048657143055388,-0.062151636571970175771,0.0062697188609350017544,-1.7057222257825512823,0,0,0
2021-03-18-22-24-15,1615829019259194433,34.418289184570319605,-119.85016632080083809,-0.32209825140197456683,-0.086833526726559723263,0.0021941811970919546451,-1.7028859832075817771,0,0,0
2021-03-18-22-24-16,1615829020259072454,34.418278778758050862,-119.85016769281580196,-0.32606003861580473702,-0.046862582455277489168,-0.00012190140966714848171,-1.6957924774332731044,0,0,0
2021-03-18-22-24-17,1615829021259154901,34.418265317879658483,-119.85016942201208678,-0.32302759556351673398,-0.10101939323249396752,-0.0035798391266162942967,-1.7126323108571404052,0,0,0
2021-03-18-22-24-18,1615829022259592870,34.418251886680977236,-119.8501711682766171,-0.32226214497426053374,-0.05338863471149084966,0.020105588770370563106,-1.6955567018630293141,0,0,0
2021-03-18-22-24-19,1615829023259302765,34.418238440094825137,-119.85017279902993437,-0.32391521750685375869,-0.074924616511174310651,0.00088337088134821529616,-1.707011000514021104,0,0,0
2021-03-18-22-24-20,1615829024258973286,34.418227423925557673,-119.85017420592936332,-0.3205211496100072166,-0.077923496432266037282,0.0081907250161754215079,-1.7061107858416202365,0,0,0
2021-03-18-22-24-21,1615829025259020889,34.418285370247119204,-119.85016632074214726,-0.3222930017265061009,-0.092520514649555171682,0.0025547527127090922418,-1.702537026827821709,0,0,0
2021-03-18-22-24-22,1615829026259073024,34.418285365726099201,-119.85016632130644609,-0.32149165578126021048,-0.091853771730457764444,0.0017222704641187669937,-1.7029844371246201096,0,0,0
2021-03-18-22-24-23,1615829027258998076,34.418285369861017386,-119.85016632085533672,-0.32244062367963854943,0.017172589666984466178,-0.013790907783013485466,-1.6812515221873960414,0,0,0
2021-03-18-22-24-24,1615829028259029847,34.418289184597441022,-119.85016632102389167,-0.32061592975384883841,0.029105364984787544802,0.013398625521078375705,-1.4625098047656923672,0,0,0
2021-03-18-22-24-25,1615829029259371200,34.418277740157023459,-119.85017395013537111,-0.32605783578550273649,0.07548014380344759966,-0.13970896828911075205,-1.2877617864751687016,0,0,0
2021-03-18-22-24-26,1615829030259000002,34.418270111063428374,-119.85016632065008935,-0.32211643385944715989,0.057209106519302763139,-0.1513250324191872942,-2.1833091313087464869,0,0,0
2021-03-18-22-24-27,1615829031259052918,34.418266296249477421,-119.85015869142578993,-0.3219263454732819163,0.1483430171763557015,-0.12860594256820520598,2.6316931274498602811,0,0,0
2021-03-18-22-24-28,1615829032259017397,34.418258666977173732,-119.85015869144822886,-0.32400454393252442475,0.049646048191608421751,-0.12126751175963890184,1.552512085738736225,0,0,0
2021-03-18-22-24-29,1615829033259074272,34.418251037589236319,-119.85015869140710265,-0.31868191594279160483,0.08699258103099340167,-0.15786850723240003491,1.6052903918856442633,0,0,0
2021-03-18-22-24-30,1615829034258984896,34.418235778804621816,-119.85015869140983114,-0.32052859796551447236,0.077057219811902735729,-0.13822781138123627076,1.7687838258399439795,0,0,0
2021-03-18-22-24-31,1615829035259113959,34.418220520021002073,-119.85015106201383617,-0.32774226282097479457,0.046684380293577833199,-0.096176540423439718652,2.078539115638224466,0,0,0
2021-03-18-22-24-32,1615829036259442864,34.418212890623884448,-119.8501434326184949,-0.32511055234870611663,0.0030752110199750615389,-0.16202288871323497488,1.8883244033375914395,0,0,0
2021-03-18-22-24-33,1615829037259345416,34.418197631835091954,-119.85013580322163307,-0.32300798574949435293,0.039311389360024526218,-0.15578441154382752232,2.14263062159044404,0,0,0
2021-03-18-22-24-34,1615829038259055103,34.418186187744851168,-119.85013580322330995,-0.32849356798461232243,0.036639837856691385987,-0.23050229797197335779,2.0196950861143698752,0,0,0
2021-03-18-22-24-35,1615829039259517863,34.418170928956307364,-119.8501281738344062,-0.32526201962851863936,-0.025219709292646292492,-0.11816302725629347636,1.5791538464078558324,0,0,0
2021-03-18-22-24-36,1615829040259020467,34.418155670168900429,-119.85012817382794026,-0.31953606466447764811,0.031410137051965783539,-0.060836199696848634877,1.5031397545857663189,0,0,0
2021-03-18-22-24-37,1615829041258998331,34.418140411376271004,-119.85012054443133422,-0.32175281117042481283,-0.048401257984528642253,-0.1144831375123261108,1.736255119021694604,0,0,0
2021-03-18-22-24-38,1615829042259049477,34.418125152589205129,-119.85012054443436114,-0.32686910861517320948,0.039340818754905318433,-0.05222578380355445693,2.1535622081573704278,0,0,0
2021-03-18-22-24-39,1615829043259031195,34.41810989379858654,-119.85010528564376386,-0.33031949244262853727,-0.11578082509601907157,0.29996818907863703751,2.3649768021632433523,0,0,0
2021-03-18-22-24-40,1615829044259010830,34.418102264403863444,-119.85009002685406188,-0.32285303712392654507,-0.16724177882346699664,0.26353107004490056164,2.4405448059422005791,0,0,0
2021-03-18-22-24-41,1615829045258996819,34.418102264403984236,-119.85007476806597992,-0.32754862595651557111,-0.067066409212316616117,-0.12031620855157811045,2.8681056619494826876,0,0,0
2021-03-18-22-24-42,1615829046259017704,34.418098449704423558,-119.85005950927461527,-0.32311848731215842001,-0.31198216182361593329,-0.23668504515545876754,1.6142068592823173301,0,0,0
2021-03-18-22-24-43,1615829047258946141,34.418094635012032256,-119.85004425048896337,-0.32334956266015013604,-0.19139068157207711485,-0.043962118760029970932,1.0146957740964324124,0,0,0
2021-03-18-22-24-44,1615829048259072183,34.418094635010113791,-119.85002899169943191,-0.32630616926077732343,-0.13015890333296520343,0.013223235508553615736,1.7224631351810488766,0,0,0
2021-03-18-22-24-45,1615829049259119266,34.418094635010724858,-119.85002136230386327,-0.3246819403948651428,-0.053535762267940573134,0.099530956613206017503,2.4394474527696043964,0,0,0
2021-03-18-22-24-46,1615829050259094317,34.418094635009644833,-119.8500213623054691,-0.32492539210739507238,-0.0094857988759160655201,-0.098506135153114487979,2.4858435329498962396,0,0,0
2021-03-18-22-24-47,1615829051259099630,34.418098449706931774,-119.85002136230447434,-0.32478541726796900102,-0.030174032857571229244,-0.02340329950607321699,2.7355667063404514039,0,0,0
2021-03-18-22-24-48,1615829052259109681,34.418102264404282664,-119.85004425048765597,-0.32341900008979418413,-0.034755824212803654305,0.01385730619308910179,3.0462111548943608952,0,0,0
2021-03-18-22-24-49,1615829053259241920,34.418102264404261348,-119.85004425048823862,-0.32695436470682115448,-0.022926958859250497896,-0.013029938297246388551,2.9804113027153213977,0,0,0
2021-03-18-22-24-50,1615829054259035670,34.41810607910131381,-119.85004425048826704,-0.3240103349713058245,-0.028061560368341481597,-0.014849635078368599722,3.010788610900299922,0,0,0
2021-03-18-22-24-51,1615829055259614211,34.418106079101434602,-119.85004425048829546,-0.32870112759748876252,-0.0091867708799775044115,0.0055466714900346825168,3.0265471488604456241,0,0,0
2021-03-18-22-24-52,1615829056258996086,34.418106079101207229,-119.85004425048839494,-0.32154517915411823248,0.0072724910776605462479,0.02013569844035404191,3.0659799436874886069,0,0,0
2021-03-18-22-24-53,1615829057259002700,34.418106324816243102,-119.8500473522993417,-0.32594651643374272787,0.014480911530812944771,-0.013848365943327325608,3.0010984142228518401,0,0,0
2021-03-18-22-24-54,1615829058259065356,34.418107754629161832,-119.85006408348797891,-0.32419356120153863809,-0.026542798676748781406,0.0078445182167352009439,3.0464459230731320005,0,0,0
2021-03-18-22-24-55,1615829059258984626,34.418107963232891677,-119.85008039644883127,-0.32779912049075332625,-0.023702498030289627373,0.00035002553010266853175,3.1181575224959905412,0,0,0
2021-03-18-22-24-56,1615829060259000668,34.418113708492924729,-119.85004425221401902,-0.32685322011822381949,0.02859734582253992824,-0.0091691624903078548792,3.0405112043605910799,0,0,0
2021-03-18-22-24-57,1615829061260136865,34.418113707185717942,-119.85004425086265201,-0.32651789346102139122,-0.16600497539854827678,-0.10622675175196186204,2.7572346029700507408,0,0,0
2021-03-18-22-24-58,1615829062258942907,34.41811371402960873,-119.8500442583742398,-0.32579511971688174254,0.15128786348110614957,0.34781816323313424766,2.0990508248859018892,0,0,0
2021-03-18-22-24-59,1615829063259011812,34.418117523061681595,-119.85004425066655642,-0.3240815035454515658,0.0010360875193890447827,0.31478164314117867972,1.717285177417499753,0,0,0
2021-03-18-22-25-00,1615829064260602385,34.418125152549201573,-119.85003662090201715,-0.1187834721989944331,-0.11490095143741343997,0.18054879104472143503,1.5170873820844419377,0,0,0
2021-03-18-22-25-01,1615829065259080510,34.418125152594271299,-119.8500366210920447,-0.10211171019390934134,0.028921900398375034735,0.56220511530521211085,1.4412397320179290983,0,0,0
2021-03-18-22-25-02,1615829066258991134,34.4181213378764852,-119.85002899169741397,-0.14108447402112042623,0.021061454199433088386,0.77148354171200717033,1.4862484117546632678,0,0,0
2021-03-18-22-25-03,1615829067259003269,34.418117523181798845,-119.85002136230824021,-0.18203552227611027869,-0.02600354055665143535,0.58499257069307897261,1.4570837104319454003,0,0,0
2021-03-18-22-25-04,1615829068258999311,34.418113708493351055,-119.85001373291196103,-0.19241089348908385626,0.0060558229578212283487,0.28424493759017016581,1.4414778564165404706,0,0,0
2021-03-18-22-25-05,1615829069258991914,34.41812133797484563,-119.85002899168601687,-0.21314815219396793244,-0.017334694235187800976,0.037980676005834553,1.412705172850117874,0,0,0
2021-03-18-22-25-06,1615829070258999779,34.418109893798238375,-119.84999847412066742,-0.23969921264864382793,-0.020356598140201041802,-0.062860700916548425954,1.4324216597118877292,0,0,0
2021-03-18-22-25-07,1615829071259096289,34.418121337890589473,-119.8500137329095736,-0.23414444349328566997,-0.023177669883959750585,-0.0016891958273803555236,1.4454567404223190863,0,0,0
2021-03-18-22-25-08,1615829072258989465,34.418117523193210161,-119.85000610351585237,-0.21341837753389333865,-0.020215542298308415703,0.065337888263210769368,1.431994463698032849,0,0,0
2021-03-18-22-25-09,1615829073259043163,34.418117523193259899,-119.85000610351619343,-0.2306689129654425352,0.001691964784439021997,0.063843029721750307881,1.4403921332685154511,0,0,0
2021-03-18-22-25-10,1615829074259008631,34.418121337890553946,-119.85001373291017046,-0.2419779227342366279,1.687986153257901029e-05,0.044130574217715379248,1.4406749390533031274,0,0,0
2021-03-18-22-25-11,1615829075259076183,34.418131735218352674,-119.85001234057776287,-0.23857768204644094756,0.21603394264100136968,-0.038516405553421173558,1.4216776703487241651,0,0,0
2021-03-18-22-25-12,1615829076259038839,34.418145039489957071,-119.85000960797329128,-0.22110694012758194682,0.45257214293942549244,0.11901491164356624297,1.2925207184888101164,0,0,0
2021-03-18-22-25-13,1615829077259000505,34.418156925960310843,-119.85000263349525085,-0.11364015308569365426,0.19098653471410484417,0.19213141663558414018,0.82063838153202872672,0,0,0
2021-03-18-22-25-14,1615829078259054775,34.418164394848488996,-119.84998946695289135,0.056255931204075959595,0.14628650454755873223,0.089265963193402603215,0.30389672041053938933,0,0,0
2021-03-18-22-25-15,1615829079259058577,34.418166739742353855,-119.84997359759042013,0.1834611198232814766,0.0031615100655009225825,0.15990504035420466389,-0.010873648513873545793,0,0,0
2021-03-18-22-25-16,1615829080259034618,34.418166913737337609,-119.84995801890538303,0.36939010488544155031,-0.0051705079579916005117,0.13934925304109888056,-0.010285284204222866489,0,0,0
2021-03-18-22-25-17,1615829081259019306,34.418167210357488273,-119.84994130924229694,0.53093461569118660659,0.067963095028908057649,0.098579428847360289767,-0.0080331679874493956001,0,0,0
2021-03-18-22-25-18,1615829082259575347,34.41816753420147279,-119.84992507353901203,0.64217410099667593393,0.17425904238119560574,0.078981959763387621365,-0.0010572948064376153261,0,0,0
2021-03-18-22-25-19,1615829083258966284,34.418167865829886409,-119.84990880413479886,0.7185363642683572083,0.094160069716339570012,0.065105122015781766165,-0.0072886841869737057503,0,0,0
2021-03-18-22-25-20,1615829084259038211,34.418168157403243868,-119.84989252356419343,0.76657474084756760391,-0.039526997141582406736,0.049856231945360256208,-0.0082846439075814400782,0,0,0
2021-03-18-22-25-21,1615829085259123731,34.418168279295159095,-119.84988556142876348,0.79954882215798817047,-0.27090781807042396689,0.10784010254330057832,-0.099160203664277093982,0,0,0
2021-03-18-22-25-22,1615829086259066856,34.418168282862559693,-119.8498855617776826,0.81642277162817422642,-0.22359762631314680781,0.094079397935881506343,-0.11425910992901071317,0,0,0
2021-03-18-22-25-23,1615829087259118001,34.418168283738587832,-119.84988557123909914,0.81218895727193218814,-0.05498530550151824875,0.085471528990235676182,-0.1113252327518359508,0,0,0
2021-03-18-22-25-24,1615829088259003990,34.418168283591946022,-119.84988557327429248,0.80960936621654999712,-0.046996394000129643187,0.10590510201310467109,-0.099696319682426592923,0,0,0
2021-03-18-22-25-25,1615829089258991438,34.418168283659369422,-119.84988557487142202,0.79144106706246852845,-0.026484044038253311965,0.074447317729292306066,-0.1049716548485183365,0,0,0
2021-03-18-22-25-26,1615829090259092844,34.418168283783344918,-119.84988557644561524,0.76489605970009766356,-0.018061000035211806358,0.096661127477935801511,-0.10595110195190016178,0,0,0
2021-03-18-22-25-27,1615829091259129666,34.418168283790897988,-119.84988557621282723,0.72626279375767277546,-0.019060461343396582767,0.07250901436174747583,-0.12345761658833620533,0,0,0
2021-03-18-22-25-28,1615829092259173156,34.418168283836969579,-119.84988557652624763,0.6787257572784499704,-0.0056606298123580414336,0.078681164302373526875,-0.13116240265274498045,0,0,0
2021-03-18-22-25-29,1615829093259010655,34.41816828384347815,-119.84988557665090525,0.62672643584950793461,-0.0036195084192061064733,0.10656971732569280042,-0.12720122526466989821,0,0,0
2021-03-18-22-25-30,1615829094259056749,34.418168283854441825,-119.84988557670585863,0.5652323755545937134,-0.016265478037211039686,0.08110431912878694749,-0.13686052577695126398,0,0,0
2021-03-18-22-25-31,1615829095259062738,34.418168283860225642,-119.84988557674299159,0.51067742675402338914,-0.031076097556923497345,0.10391343660270316307,-0.13277923824948278941,0,0,0
2021-03-18-22-25-32,1615829096258997321,34.418168283860069323,-119.84988557674950016,0.43672643428007534849,0.0020500239017106724852,0.07276450975323757453,-0.13174902773241364828,0,0,0
2021-03-18-22-25-33,1615829097259266643,34.418168283858584289,-119.84988557675319498,0.36720099691815122345,-0.0040791117771105745229,0.093314933742060429678,-0.1254468259993186674,0,0,0
2021-03-18-22-25-34,1615829098259049091,34.418168283860609336,-119.84988557675150389,0.29659325251841306414,-0.012833382217746604551,0.066188145542475165795,-0.13140284578504277113,0,0,0
2021-03-18-22-25-35,1615829099259094247,34.418168283862563328,-119.84988557675197285,0.21628745816839148319,-0.010487470999777075836,0.061766895854490300177,-0.1381882246950605353,0,0,0
2021-03-18-22-25-36,1615829100259006486,34.41816828386276228,-119.84988557674644483,0.13802742775609863624,-0.012898922747519385099,0.080164771421725844469,-0.14601762996552006268,0,0,0
2021-03-18-22-25-37,1615829101258998725,34.418168283862478063,-119.8498855767483775,0.059869582816597780028,-0.0062283442507675614713,0.046229198597786583247,-0.1726004169169753355,0,0,0
2021-03-18-22-25-38,1615829102258999141,34.418168283861717782,-119.84988557674239473,-0.020315404654875416496,-0.00080039120567371700461,0.042225336060967053053,-0.18426539175783090974,0,0,0
2021-03-18-22-25-39,1615829103259098099,34.418168283861874102,-119.8498855767423521,-0.10722644740371685412,-0.0029510259078648769411,0.047793161647100151912,-0.18502463563305124317,0,0,0
2021-03-18-22-25-40,1615829104259305182,34.418168283862222268,-119.84988557673194975,-0.19066629338772070335,-0.0062702525820504863979,0.082022404486089689479,-0.16507634393849757171,0,0,0
2021-03-18-22-25-41,1615829105259066119,34.418168283861795942,-119.84988557673642617,-0.25970586632867515009,-0.0036162739028725555089,0.079464208440600689332,-0.14195277459145799748,0,0,0
2021-03-18-22-25-42,1615829106258999504,34.418079376220347854,-119.84984588623034085,-0.25035972733472255936,-0.023154344973094258264,0.034828089885443745677,-0.11957744136751316533,0,0,0
2021-03-18-22-25-43,1615829107259225441,34.418090820341653568,-119.84987640384220242,-0.30594505434675750566,-0.066770634289379515725,-0.11191849605625955877,-0.050409475574370081474,0,0,0
2021-03-18-22-25-44,1615829108259006118,34.418083190917514003,-119.8498687744141904,-0.32784942429375868445,0.17732583021484743524,-0.60832881251633041941,0.15110509499663823951,0,0,0
2021-03-18-22-25-45,1615829109258994555,34.41807556152326697,-119.84986877441302511,-0.33257452591468977809,-0.086963776808404544272,-0.49902464269968349608,0.21660692053839630811,0,0,0
2021-03-18-22-25-46,1615829110258990805,34.418071746824978163,-119.84986114501687382,-0.32824603322539336325,0.086497289607247215826,-0.15364824971548476928,0.0042398366112926825708,0,0,0
2021-03-18-22-25-47,1615829111259047523,34.418071746826626622,-119.84986114501971599,-0.33393999081923997352,-0.024912276203693364818,-0.21099775384524122046,0.68788778484774015798,0,0,0
2021-03-18-22-25-48,1615829112258996898,34.418071746826697677,-119.84987640380880691,-0.33197619019456742206,-0.025650782658078952886,-0.24126605355925648255,-0.0028857724549491551615,0,0,0
2021-03-18-22-25-49,1615829113259014033,34.418071746825567914,-119.84989166259735782,-0.32918373981647358617,-0.1977473903382774012,-0.29880052256222427998,0.043721491880268435748,0,0,0
2021-03-18-22-25-50,1615829114259192366,34.418075561523828299,-119.8499145507815058,-0.32910592809701555428,-0.083953079972494487615,-0.18537215141146404229,0.10131444706424384827,0,0,0
2021-03-18-22-25-51,1615829115259604449,34.418079376222728172,-119.84993743896258422,-0.32758788207853245522,-0.026182671744425161514,-0.25325545373713642672,0.02402675589896128075,0,0,0
2021-03-18-22-25-52,1615829116259051115,34.418083190916419767,-119.84995269775753002,-0.32883594832214863013,0.022700563261120559194,-0.29801008663210498684,0.065987772474817685264,0,0,0
2021-03-18-22-25-53,1615829117258959969,34.418087005615312535,-119.84996795654278401,-0.33271544069458763859,0.0025254912803132139806,-0.25146065887826701823,-0.008261992200206623102,0,0,0
2021-03-18-22-25-54,1615829118259064083,34.41809082031133471,-119.84998321533358023,-0.33407416384926474917,0.11651949851020476645,-0.18994366069118653884,-0.084369146394003335931,0,0,0
2021-03-18-22-25-55,1615829119259097989,34.418090820312265521,-119.84999847412046847,-0.32993297062341647718,-0.02096526188677755656,-0.21712987781940024101,-0.078564720288835029893,0,0,0
